<?xml version="1.0" encoding="utf-8"?>
<gpx xmlns:xsd="http://www.w3.org/2001/XMLSchema" xmlns:xsi="http://www.w3.org/2001/XMLSchema-instance" version="1.0" creator="Geo::Gpx" xsi:schemaLocation="http://www.topografix.com/GPX/1/0 http://www.topografix.com/GPX/1/0/gpx.xsd" xmlns="http://www.topografix.com/GPX/1/0">
<time>2019-01-18T21:52:45+00:00</time>
<bounds maxlat="66.372272" maxlon="-53.10411" minlat="42.6533" minlon="-144.130422" />
<wpt lat="42.6533" lon="-80.467346">
<name>Backus Heritage Conservation Area</name>
<desc>Address: Port Rowan,Ontario,CDN, N0E 1M0 Driving Directions: Notes: Water Available: Season / Operational: Open May through mid Octob Dump Station User Fee: *</desc>
</wpt>
<wpt lat="42.90648" lon="-79.25234">
<name>The Regional Municipality of Niagara Sewage Dumping Station</name>
<desc>Address: 30 Prosperity AvenuePort Colborne,Ontario,CDN, L3K 5X5 Driving Directions: Notes: there&#x27;s an intercom to the Left of the gate,press the button and they&#x27;ll let you in if the gate won&#x27;t open automatically; drive straight back and turn Left, there are yellow arrows on the pavement leading you to the dump area; a man hole cover has a 4 inch cover in the center of it to dump into; it is an easy drive in and out Water Available: water is available Season / Operational: Open year round; 8:30AM - 4:30 Dump Station User Fee: Free</desc>
</wpt>
<wpt lat="42.91799" lon="-80.86124">
<name>Spring Lake RV Resort</name>
<desc>Address: 263459 Prouse RoadMount Elgin,Ontario,CDN, N0J 1N0 Driving Directions: Hwy. 401 Exit 216,11 miles South Notes: Water Available: potable and rinse water (non-potable) available Season / Operational: Open May through Octob Dump Station User Fee: $10.00</desc>
</wpt>
<wpt lat="42.92188" lon="-78.96656">
<name>Flying J Travel Plaza</name>
<desc>Address: 1637 Pettit RoadFort Erie,Ontario,CDN, L2A 5M4 Driving Directions: QEW; Gilmore Road Notes: end of truck diesel pumps; between bay 9 and bay 10 Water Available: no water available Season / Operationa Dump Station User Fee: $10.00</desc>
</wpt>
<wpt lat="42.93333" lon="-81.17444">
<name>Pilot Flying J Travel Plazas #789</name>
<desc>Address: 3700 Highbury Avenue SouthLondon,Ontario,CDN, N6N 1P3 Driving Directions: Hwy. 401 &#x26;amp;Highbury Avenue Exit 189 Notes: Water Available: Season / Operationa Dump Station User Fee: $10.00 or $5.00 with Flying J Card or Pilot Flying J RV Plus Card</desc>
</wpt>
<wpt lat="42.93871" lon="-78.92612">
<name>The Regional Municipality of Niagara Sewage Dumping Station</name>
<desc>Address: 1 Anger AvenueFort Erie,Ontario,CDN, L2A 5M4 Driving Directions: Niagara Parkway Notes: enter gate then turn Left,dump station is behind brick building; very clean Water Available: rinse water (non-potable) available Season / Operational: Open year round; 7:00AM - 5:00 Dump Station User Fee: Free</desc>
</wpt>
<wpt lat="43.00646" lon="-79.23741">
<name>The Regional Municipality of Niagara Sewage Dumping Station</name>
<desc>Address: 505 River RoadWelland,Ontario,CDN, L3B 5N4 Driving Directions: Notes: this station is a sewage treatment plant but the dump station is inside the gates,the front gate has a sensor, so when you pull up, the gate should open automatically, once you are inside the gates there are signs directing how to get to the dump location, no need to report at the office like the sign out front says Water Available: rinse water (non-potable) available Season / Operational: Open year round; 7:00AM - 7:00 Dump Station User Fee: Free</desc>
</wpt>
<wpt lat="43.08224" lon="-81.82828">
<name>Rock Glen Family Resort</name>
<desc>Address: 8685 Rock Glen RoadArkona,Ontario,CDN, N0M 1B0 Driving Directions: 1.8 km (1.1 miles) Northeast of Arkona off Hwy. 7 &#x26;amp;79 on Rock Glen Road. 53 km (33 miles) East of Sarnia Notes: Water Available: potable and rinse water (non-potable) available Season / Operational: Open year rou Dump Station User Fee: $10.00 or Free for Resorts of Distintion members. AOR members and Nascar Campground network members</desc>
</wpt>
<wpt lat="43.13594" lon="-80.76974">
<name>Woodstock Wastewater Treatment Plant</name>
<desc>Address: Woodstock,Ontario,CDN, N4S Driving Directions: Notes: Water Available: Season / Operationa Dump Station User Fee: Free</desc>
</wpt>
<wpt lat="43.1883" lon="-79.84499">
<name>The Mountain Community Recycling Centre</name>
<desc>Address: Hamilton,Ontario,CDN, N0M Driving Directions: Upper Ottawa Street and Kilbride Road; between Nebo Road and Gage Road Notes: Water Available: potable and rinse water (non-potable) available Season / Operational: Open Monday to Saturday,8:00AM - 6:00PM, closed on Sundays &#x26;amp;Statutory Holida Dump Station User Fee: $8.50</desc>
</wpt>
<wpt lat="43.21936" lon="-81.87426">
<name>The Dunes Oakridge Park</name>
<desc>Address: 9910 Northville CrescentThedford,Ontario,CDN, N0M 2N0 Driving Directions: 13 km (8 miles) South of Grand Bend &#x26;amp;5 km South of Pinery Provincial Park just off Hwy. 21 on Northville Cresent Notes: Water Available: Season / Operational: Open May through mid Octob Dump Station User Fee: $10.00</desc>
</wpt>
<wpt lat="43.25154" lon="-81.14987">
<name>Waste Treatment Plant</name>
<desc>Address: Saint Marys,Ontario,CDN Driving Directions: Notes: Water Available: Season / Operational: Open year round; 8:00AM - 4:00 Dump Station User Fee: Free</desc>
</wpt>
<wpt lat="43.34266" lon="-80.31266">
<name>Churchill Park</name>
<desc>Address: Water Street SouthCambridge,Ontario,CDN, P0J Driving Directions: from Hwy. 401 - exit Hwy. 24 South; follow to Churchill Park - park entrance just North of Myers Road at South end of City; from Brantford - take Hwy. 24 North; turn right into Churchill Park just North of Myers Road Notes: campground has been closed but RV dump still accessible and available for use; RV dump is at West end of parking lot near the entrance to the Wandering Canadians campground Water Available: rinse water (non-potable) available Season / Operational: Open late May through mid Octob Dump Station User Fee: Free</desc>
</wpt>
<wpt lat="43.53564" lon="-65.59771">
<name>Barington Municipal Arena</name>
<desc>Address: Barrington,Nova Scotia,CDN, B0W 1E0 Driving Directions: Sherose Island Drive off Highway 3; on drive into arena area Notes: Water Available: rinse water (non-potable) available Season / Operational: Open May through Septemb Dump Station User Fee: Free</desc>
</wpt>
<wpt lat="43.57299" lon="-79.64972">
<name>City of Mississauga Works Yard</name>
<desc>Address: 3515 Wolfedale RoadMississauga,Ontario,CDN, L5C Driving Directions: North of Central Parkway West Notes: RV dump is locked and you need to call 905-791-7800 ext. 3101 to have someone open it for you; reported that they came in less than 5 minutes Water Available: water is available; water is off during freezing temperatures Season / Operational: Open weekdays excluding Statutory Holidays 8:30AM - 3:30 Dump Station User Fee: Free</desc>
</wpt>
<wpt lat="43.62646" lon="-81.53683">
<name>Public RV Dump Station</name>
<desc>Address: Clinton,Ontario,CDN, N0M 1L0 Driving Directions: East of Fire Hall,North West of Reach Center on Beach Street Notes: Water Available: water is available; Spring through Fall Season / Operational: Open year rou Dump Station User Fee: *</desc>
</wpt>
<wpt lat="43.64042" lon="-65.80311">
<name>West Pubnico Dump Station</name>
<desc>Address: 29 Chemin du Pont du MaraisWest Pubnico,Nova Scotia,CDN, B0W 2C0 Driving Directions: Notes: located just off of Route 335,1/2 km from Historic Acadian Village of NS Water Available: no water available Season / Operational: Open year rou Dump Station User Fee: Free</desc>
</wpt>
<wpt lat="43.73457" lon="-81.43298">
<name>Community Campground Dump Station</name>
<desc>Address: 288 Gypsy LaneBlyth,Ontario,CDN, N0M 1H0 Driving Directions: Hwy. 4 and County Road 25; on Gypsy Lane by park; access North and South bound traffic Notes: Water Available: rinse water (non-potable) available Season / Operational: Open May through Octob Dump Station User Fee: Free</desc>
</wpt>
<wpt lat="43.80243" lon="-81.71298">
<name>Point Farms Provincial Park</name>
<desc>Address: 82491 Bluewater HighwayGoderich,Ontario,CDN, N7A 3X9 Driving Directions: midway between Kincardin and Goderich on Bluewater Highway Notes: Water Available: Season / Operationa Dump Station User Fee: $14.50; require park pass to enter</desc>
</wpt>
<wpt lat="43.87339" lon="-78.75092">
<name>Courtice Water Pollution Control Plant</name>
<desc>Address: 100 Osborne RoadCourtice,Ontario,CDN, L1E Driving Directions: Right turn immediately after entering the gate,and then another Right at the first road, follow road around to the North side of the plant where the RV dump is located; it is a hole in a steel plate in the roadway Notes: Water Available: rinse water (non-potable) available Season / Operational: Open year round; Monday to Friday (excluding Statutory Holidays) 7:30AM - 3:30 Dump Station User Fee: Free</desc>
</wpt>
<wpt lat="43.87548" lon="-78.77869">
<name>Darlington Provincial Park</name>
<desc>Address: 1600 Darlington Park RoadOshawa,Ontario,CDN, K0A Driving Directions: Hwy. 401 Exit 425; South on Courtice Road,Right on Darlington Park Road Notes: $14.00 for day pass; RV dumping only fee charged is the Daily Vehicle Permit (2013 rate) Water Available: water is available Season / Operational: Open May through Octob Dump Station User Fee: user fee charged</desc>
</wpt>
<wpt lat="43.87918" lon="-78.8244">
<name>Harmony Creek Water Pollution Control Plant</name>
<desc>Address: 785 Colonel Sam DriveOshawa,Ontario,CDN, L1H 8S2 Driving Directions: Notes: rinse hose is 38 mm (1-1/2&#x22;) that has to be stretched to RV dump site; drive in and back out; dumps through a grate into main sewage flow Water Available: rinse water (non-potable) available Season / Operational: Open year round; Monday to Friday 7:30AM - 3:30 Dump Station User Fee: Free</desc>
</wpt>
<wpt lat="43.89217" lon="-81.31094">
<name>Public Sewage Dumping Station</name>
<desc>Address: Wingham,Ontario,CDN, N0G 2W0 Driving Directions: from Josephine Street / County Road 4,turn West at the beer store, North side of Minnie Street; across from 435 Minnie Street near bridge overpass Notes: operated by the Township of North Huron Water Available: rinse water (non-potable) available Season / Operationa Dump Station User Fee: Free</desc>
</wpt>
<wpt lat="43.92924" lon="-79.823026">
<name>Albion Hills Conservation Area</name>
<desc>Address: Bolton,Ontario,CDN, L0N 1P0 Driving Directions: Notes: Water Available: Season / Operational: Open May through early Octob Dump Station User Fee: *</desc>
</wpt>
<wpt lat="43.96663" lon="-81.50735">
<name>Soccer Field CoOp</name>
<desc>Address: 790 Havelock StreetLucknow,Ontario,CDN, N0G 2H0 Driving Directions: Notes: easy access,pull threw, dual side with water Water Available: water is available Season / Operational: Open year rou Dump Station User Fee: $10.00</desc>
</wpt>
<wpt lat="44.04509" lon="-64.721">
<name>Hank Snow Museum / Water Tower</name>
<desc>Address: 148 Bristol AvenueLiverpool,Nova Scotia,CDN, B0T 1K0 Driving Directions: Highway 103,Exit 19; corner of Bristol and Hank Snow Drive; right next to the Hank Snow Home Town Museum, across from the Ultramar (MacPherson&#x27;s) Notes: 24 hours free RV parking Water Available: rinse water (non-potable) available Season / Operational: Open year rou Dump Station User Fee: Free</desc>
</wpt>
<wpt lat="44.10472" lon="-77.5845">
<name>Public Works Yard</name>
<desc>Address: 30 Pelham StreetTrenton,Ontario,CDN, K8V 5A7 Driving Directions: Hwy. 401 Exit 525 Southbound onto Trenton Frankford Road/County Road 33,at the roundabout, take the 3rd exit onto Trenton Street which becomes Water Street and then becomes Front Street, turn Right onto Bondhead Street, cross Pelham Street and enter through the gate; the dump station is along the fence on the Left Notes: RV dump station reported CLOSED 2017-08-10; big rigs will have to back up to exit; pick up key in office on South side of building and pay for service Water Available: water is available Season / Operational: Open year round; 8:30AM - 4:30 Dump Station User Fee: $5.00</desc>
</wpt>
<wpt lat="44.1503" lon="-79.8961">
<name>Earl Rowe Provincial Park</name>
<desc>Address: Alliston,Ontario,CDN, K0G Driving Directions: Hwy. 89 East; Concession Road 7 Notes: RV dumping only fee charged is the Daily Vehicle Permit $14.00 Water Available: water is available Season / Operational: Open May through Octob Dump Station User Fee: user fee charged</desc>
</wpt>
<wpt lat="44.18039" lon="-77.36353">
<name>Carl Cox RV</name>
<desc>Address: 4091 Old Highway 2Belleville,Ontario,CDN, K8N 4Z4 Driving Directions: Notes: Water Available: Season / Operationa Dump Station User Fee: $20.00</desc>
</wpt>
<wpt lat="44.26667" lon="-76.96833">
<name>Pilot Flying J Travel Plazas #790</name>
<desc>Address: 628 County RoadNapanee,Ontario,CDN, K7R 3L1 Driving Directions: 401 &#x26;amp;County Road 41 Exit 579; on County Road 41 (Centre Street) North of town; Highway 401 East or West exit @ Napanee located immediately North of the 401 Notes: Water Available: rinse water (non-potable) available Season / Operationa Dump Station User Fee: $10.00 or $5.00 with Flying J Card or Pilot Flying J RV Plus Card</desc>
</wpt>
<wpt lat="44.39142" lon="-64.52766">
<name>Irving Truck Stop</name>
<desc>Address: Bridgewater,Nova Scotia,CDN, B0K Driving Directions: Highway 103 Exit 12; Exit 12 South to Bridgewater,the Irving is located on the East side of Hwy. 10 and just before the exit to Lahave Street Notes: near the far Left corner of truck parking area; 24 hr service,gas, diesel and propane available Water Available: rinse water (non-potable) available Season / Operational: Open year rou Dump Station User Fee: Free</desc>
</wpt>
<wpt lat="44.43204" lon="-66.16344">
<name>Whale Cove Campground</name>
<desc>Address: 50 Whale Cove RoadDigby,Nova Scotia,CDN, B0V 1E0 Driving Directions: from the Princess of Acadia ferry from Saint John,New Brunswick, drive Shore Road until you reach the second stop sign at the top of the hill, turn Right at the four-way stop and drive down Digby Neck until you see the sign for Whale Cove, turn Right on Whale Cove Road and Whale Cove Campground is at top of hill; from Yarmouth towards Digby, take Middle Cross Road to access Highway 217, turn Left at stop sign and drive down Digby Neck until you see the sign for Whale Cove; coming from Halifax, take Exit 26, turn Right at stop sign and turn Left at the second set of traffic lights, turn Left at the four way stop and drive down the Digby Neck, turn Right on Whale Cove Road Notes: Water Available: potable and rinse water (non-potable) available Season / Operational: Open May through Octob Dump Station User Fee: $5.00 on first night stay,Free on second night stay</desc>
</wpt>
<wpt lat="44.58417" lon="-80.93194">
<name>Owen Sound Wastewater Treatment Plant</name>
<desc>Address: 2050 3rd Avenue EastOwen Sound,Ontario,CDN, N4K 2M6 Driving Directions: East side of bay Notes: notify front office upon arrival to site Water Available: no water available Season / Operational: Open year round; Tuesday to Thursday 8:00AM - 3:00 Dump Station User Fee: Free</desc>
</wpt>
<wpt lat="44.58847" lon="-79.358">
<name>Mara Provincial Park</name>
<desc>Address: 181 Courtland StreetAtherley,Ontario,CDN, L5V 6S1 Driving Directions: Notes: Water Available: potable and rinse water (non-potable) available Season / Operational: Open June through Septemb Dump Station User Fee: *</desc>
</wpt>
<wpt lat="44.60835" lon="-80.58681">
<name>Meaford Harbour and Marina</name>
<desc>Address: 3 Staint Vincent StreetMeaford,Ontario,CDN, N4L Driving Directions: Notes: part of the marina Water Available: Season / Operational: Open May through Octob Dump Station User Fee: $5.00</desc>
</wpt>
<wpt lat="44.72351" lon="-75.52226">
<name>Canadian Tire #085</name>
<desc>Address: 140 Prescott Centre DrivePrescott,Ontario,CDN, K0E 1T0 Driving Directions: Highway 401 and Edward Street; next to Independent Grocer Notes: Water Available: rinse water (non-potable) available Season / Operationa Dump Station User Fee: $10.00</desc>
</wpt>
<wpt lat="44.74544" lon="-81.13941">
<name>Bluewater Park Campground</name>
<desc>Address: 400 William StreetWiarton,Ontario,CDN, N0H 2T0 Driving Directions: Notes: turn right when driving into the park and facing the old train station Water Available: Season / Operational: Open mid May through mid Octob Dump Station User Fee: $13.00</desc>
</wpt>
<wpt lat="44.88061" lon="-66.94051">
<name>Herring Cove Provincial Park</name>
<desc>Address: 136 Herring Cove RoadWelshpool,New Brunswick,CDN, E5E 1B8 Driving Directions: Route 774 Notes: Water Available: water is available Season / Operational: Open mid May through mid Octob Dump Station User Fee: Free</desc>
</wpt>
<wpt lat="44.89996" lon="-75.18928">
<name>Canadian Tire</name>
<desc>Address: 12329 Country Road 2Morrisburg,Ontario,CDN, K0E 1K0 Driving Directions: Hwy. 401 Exit 750; take Right on Route 31,then Right on Country Road 2 Notes: Water Available: rinse water (non-potable) available Season / Operationa Dump Station User Fee: Free</desc>
</wpt>
<wpt lat="44.96851" lon="-64.92325">
<name>Public RV Dump Station</name>
<desc>Address: Greenwood,Nova Scotia,CDN, B0P Driving Directions: Central Avenue &#x26;amp;Kingswood Road Notes: behind the Greenwood Mall,follow signs Water Available: rinse water (non-potable) available; the water is potable/municipal,use own hose for sanitary reasons Season / Operationa Dump Station User Fee: Free</desc>
</wpt>
<wpt lat="45.13658" lon="-66.5293">
<name>New River Beach Provincial Park</name>
<desc>Address: 78 New River Beach RoadNew River Beach,New Brunswick,CDN, E5J 1G7 Driving Directions: Exit to the South of Route 1 at New River Beach,keep to the Left of the Y and onto New River Beach Road, stop at the Park Office for directions to the dumpsite&#x27; the office will be to the South of the posted coordinates and the dump will be to the North of the coordinates Notes: Water Available: water is available Season / Operational: Open mid May through early Octob Dump Station User Fee: Free</desc>
</wpt>
<wpt lat="45.19922" lon="-72.74858">
<name>Service C Bokus Inc.</name>
<desc>Address: 1582 Sud StreetCowansville,Quebec,CDN, G0R Driving Directions: at the intersection of Route 139 &#x26;amp;Route 202 Notes: well established,well kept; can accomodate large rigs Water Available: Season / Operationa Dump Station User Fee: $5.00 or Free with fuel fill up</desc>
</wpt>
<wpt lat="45.21932" lon="-76.20691">
<name>RV Disposal Station</name>
<desc>Address: 482 Almonte StreetAlmonte,Ontario,CDN, K0A 1A0 Driving Directions: 1/2 km West of junction Hwy. 29 and Wolf Grove Road (Almonte Street),in between fire hall and Civitan Club hall Notes: Town Public Works Garage Water Available: rinse water (non-potable) available Season / Operational: Open mid May through mid October; Monday to Friday 5:00PM - 8:30PM,Weekends 9:00AM - 8:00 Dump Station User Fee: Free</desc>
</wpt>
<wpt lat="45.22331" lon="-72.77577">
<name>Water Treatment City</name>
<desc>Address: Cowansville,Quebec,CDN, J2K Driving Directions: Chemin Brosseau Notes: Water Available: Season / Operationa Dump Station User Fee: Free</desc>
</wpt>
<wpt lat="45.23167" lon="-66.12309">
<name>Visitor Information Center</name>
<desc>Address: Saint John,New Brunswick,CDN, E8A Driving Directions: West of the city on Highway 1; Eastbound Notes: Water Available: Season / Operational: Open mid May through mid Octob Dump Station User Fee: Free</desc>
</wpt>
<wpt lat="45.28731" lon="-72.99363">
<name>Water Treatment Plant</name>
<desc>Address: 801,rue Principale OFarnham,Quebec, CDN, J2N 2X9 Driving Directions: Notes: Water Available: Season / Operationa Dump Station User Fee: Free</desc>
</wpt>
<wpt lat="45.30442" lon="-75.08396">
<name>Canadian Tire</name>
<desc>Address: 95 Lafleche Blvd.Casselman,Ontario,CDN, K0A 1M0 Driving Directions: Notes: Water Available: no water available Season / Operationa Dump Station User Fee: Free</desc>
</wpt>
<wpt lat="45.31597" lon="-73.93228">
<name>Esso</name>
<desc>Address: 92 Boulevard Edgar HebertMelocheville,Quebec,CDN, J6N 0J7 Driving Directions: Notes: behind the Esso fuel station Water Available: water is available Season / Operationa Dump Station User Fee: Free</desc>
</wpt>
<wpt lat="45.317374" lon="-74.648667">
<name>RV Dump Station</name>
<desc>Address: Alexandria,Ontario,CDN Driving Directions: MacDonald Blvd. Notes: Water Available: Season / Operationa Dump Station User Fee: user fee charged</desc>
</wpt>
<wpt lat="45.32106" lon="-72.19854">
<name>Camping Parc National du Mont-Orford Lac Stukely</name>
<desc>Address: 3321 Chemin du ParcOrford,Quebec,CDN, J1X 7A2 Driving Directions: Notes: Water Available: water is available Season / Operational: Open mid May through mid Octob Dump Station User Fee: $8.80</desc>
</wpt>
<wpt lat="45.32962" lon="-73.2878">
<name>Ville de St-Jean-sur-Richeliu</name>
<desc>Address: 855 Boul IndustrielSaint-Jean-sur-Richelieu,Quebec,CDN, J3B 7Y7 Driving Directions: near Highway 35 QC at city water pumping station; besides provincial revenu offices; on Industrial Boulevard,turn off road at lights and go to city pump station; easy to see from road Notes: Water Available: potable and rinse water (non-potable) available Season / Operational: Open year round; 24 hou Dump Station User Fee: Free</desc>
</wpt>
<wpt lat="45.33953" lon="-73.49102">
<name>Camping Amerique Montreal</name>
<desc>Address: 40 Rang Saint AndreSaint-Philippe,Quebec,CDN, J0L 2K0 Driving Directions: Notes: Water Available: water is available Season / Operational: Open April through Octob Dump Station User Fee: $5.00</desc>
</wpt>
<wpt lat="45.35386" lon="-73.69223">
<name>Garage Municipal - Travaux Publics et Genie</name>
<desc>Address: 220 Boulevard IndustrielChateauguay,Quebec,CDN, J6J 4Z2 Driving Directions: next to Eco-Centre,Centre de tri Melimax Notes: Water Available: rinse water (non-potable) available Season / Operational: Open mid April through Octob Dump Station User Fee: Free</desc>
</wpt>
<wpt lat="45.3724" lon="-72.77657">
<name>Citig</name>
<desc>Address: 1300 Boulevard IndustrielGranby,Quebec,CDN, J2J 0E5 Driving Directions: intersection Blvd. Industriel ET Route 139 Notes: Water Available: potable and rinse water (non-potable) available Season / Operationa Dump Station User Fee: Free</desc>
</wpt>
<wpt lat="45.37772" lon="-71.9766">
<name>Station Pompage Municipale</name>
<desc>Address: 4430,boulevard BourqueSherbrooke,Quebec, CDN, J0H Driving Directions: Pri&#xBF;1&#x2044;2s intersection Mi Vallon et Boulevard Bourque,Voisin Salon quilles Alpha Notes: Water Available: water is available Season / Operationa Dump Station User Fee: Free</desc>
</wpt>
<wpt lat="45.39556" lon="-73.96279">
<name>Bureau Touristique / Tourist Office</name>
<desc>Address: 105 Autoroute du SouvenirL&#x27;ele-Perrot,Quebec,CDN, J7V 7P8 Driving Directions: on the Highway 20 / Sur l&#x27;autoroute 20; facing Dairy Queen / face au Dairy Queen Notes: big rigs look first before getting in parking,Regarder l&#x27;espace avant d&#x27;entrer Water Available: potable and rinse water (non-potable) available Season / Operational: Open May through Septemb Dump Station User Fee: Free</desc>
</wpt>
<wpt lat="45.39752" lon="-73.49964">
<name>Ville La Prairie Dump Station</name>
<desc>Address: La Prairie,Quebec,CDN, J5R 2E4 Driving Directions: intersection Rue Industrielle and Rue Goyer in industrial park Notes: need to back trailer or rig in Water Available: rinse water (non-potable) available Season / Operational: Open May through Octob Dump Station User Fee: Free</desc>
</wpt>
<wpt lat="45.40522" lon="-72.74656">
<name>Arena Leonard-Grondin</name>
<desc>Address: 601 Rue Leon HarmelGranby,Quebec,CDN, J2G 3G7 Driving Directions: Notes: Station de vidange avec eau e l&#x27;arriere de l&#x27;arena Water Available: Season / Operationa Dump Station User Fee: Gratis - Free</desc>
</wpt>
<wpt lat="45.41841" lon="-76.37713">
<name>Stinson &#x26;amp; Sons Gas Station</name>
<desc>Address: 580 White Lake Road / 7 Vanjumar RoadArnprior,Ontario,CDN, K7S 3G8 Driving Directions: Exit Highway 17 at Arnprior / White Lake Road; less then 1 km South from Hwy. 17 on White Lake Road; the dump site is at the back of the store Notes: Water Available: no water available Season / Operationa Dump Station User Fee: Free</desc>
</wpt>
<wpt lat="45.42068" lon="-72.67754">
<name>Camping Parc National de La Yamaska</name>
<desc>Address: 1780 Boulevard David Bouchard NGranby,Quebec,CDN, J2G 8C7 Driving Directions: Notes: Water Available: water is available Season / Operational: Open mid May through mid Octob Dump Station User Fee: $8.80</desc>
</wpt>
<wpt lat="45.42684" lon="-61.5106">
<name>Boylston Provincial Park Campground</name>
<desc>Address: Guysborough,Nova Scotia,CDN, B0H 1G0 Driving Directions: Route 16,3 km (1.9 miles) North Notes: Water Available: water is available Season / Operational: Open late June through early Septemb Dump Station User Fee: $3.00</desc>
</wpt>
<wpt lat="45.43536" lon="-73.15745">
<name>Marieville Dump Station</name>
<desc>Address: 2008,St-CA&#xA9;saireMarieville,Quebec, CDN, J3M 1J5 Driving Directions: Notes: close to the street in the front Right side (when facing) the building Water Available: no water available Season / Operational: Open year round; 24 hou Dump Station User Fee: Free</desc>
</wpt>
<wpt lat="45.44123" lon="-74.13798">
<name>Camping Daoust</name>
<desc>Address: 3844 Route HarwoodVaudreuil Dorion,Quebec,CDN, J7V 0G1 Driving Directions: Notes: Water Available: water is available Season / Operational: Open mid April through mid Octob Dump Station User Fee: $10.00</desc>
</wpt>
<wpt lat="45.44416" lon="-73.24508">
<name>Richelieu Garage Municipal</name>
<desc>Address: Saint-Roch-de-Richelieu,Quebec,CDN, J3L 0L6 Driving Directions: Notes: Water Available: Season / Operationa Dump Station User Fee: *</desc>
</wpt>
<wpt lat="45.44801" lon="-73.28721">
<name>Shell Chambly</name>
<desc>Address: 1658,av BourgogneChambly,Quebec, CDN, J3L 1Y9 Driving Directions: located at the corner of Bourgogne and Frechette,with the entrance on Frechette; easiest access is to arrive from Perigny boulevard since the station will be on the right hand side while coming in from Bourgogne would be akin to doing a U-turn; just come in parallel to the road and pumps in the no parking area right beside the blue sign indicating the dump Notes: no fee,but would appreciate RVers buy fuel; lift the metal cover to access the dump; plenty of room to manoeuvre, but rigs with toads will have to gauge turns carefully; well designed dump on a slope Water Available: rinse water (non-potable) available Season / Operational: Open May through Septemb Dump Station User Fee: Free</desc>
</wpt>
<wpt lat="45.45398" lon="-65.90941">
<name>Leisure Time RV</name>
<desc>Address: 929 Hampton RoadQuispamsis,New Brunswick,CDN, E2G 1G1 Driving Directions: take Exit 142 on Highway 1 East of Saint John,follow Highway 100 for about 5 kilometers and we&#x27;re on the Left Notes: Water Available: Season / Operationa Dump Station User Fee: $25.00</desc>
</wpt>
<wpt lat="45.45994" lon="-75.5853">
<name>Robert O. Pickard Environmental Centre Wastewater Treatment Plant</name>
<desc>Address: 800 Green Creek DriveOttawa,Ontario,CDN, K1J 1K6 Driving Directions: intersection of Green&#x27;s Creek Drive and Canotek Road Notes: city managed,limited business hours Water Available: Season / Operational: Open year round; 8:00AM - 2:30PM; not open on weekends or holida Dump Station User Fee: Free</desc>
</wpt>
<wpt lat="45.47611" lon="-76.65535">
<name>Renfrew Tourist Visitor Centre</name>
<desc>Address: 190 Mask RoadRenfrew,Ontario,CDN, K7V 3Z2 Driving Directions: Mask Road off O&#x27;Brien Road Notes: Renfrew&#x27;s main entrance is the O&#x27;Brien Road stoplight intersection on Hwy. 17 (Trans-Canada Hwy.); the tourist visitor centre is easily spotted with its yellow railway caboose,maps and area attraction information available; the RV sanitary station is located in the large, well-lit parking lot; a modern foot-operated flip lid and non-potable water rinsing apparatus make this a handy facility for RVers; right across the street are big box stores, Canadian Tire, Walmart, Staples and fueling stations; downtown offers well-appointed tree-lined main street shopping and eateries; this dump station is provided free to the traveller by the Town of Renfrew Water Available: potable and rinse water (non-potable) available Season / Operational: Open late May through Septemb Dump Station User Fee: Free</desc>
</wpt>
<wpt lat="45.47717" lon="-74.28454">
<name>Information Center of Rigaud</name>
<desc>Address: 150 Chemin de la MairiRigaud,Quebec,CDN, J0P 1P0 Driving Directions: Notes: located at the information center Water Available: water is available Season / Operationa Dump Station User Fee: Free</desc>
</wpt>
<wpt lat="45.4786" lon="-71.64981">
<name>A &#x26;amp; M Transport Inc.</name>
<desc>Address: 45 Rue David SwanEast Angus,Prince Edward Island,CDN, J0B 1R0 Driving Directions: Notes: road is a U so no need to back up or turn around Water Available: no water available Season / Operationa Dump Station User Fee: Free</desc>
</wpt>
<wpt lat="45.47879" lon="-73.41388">
<name>Municipal Garage</name>
<desc>Address: 6355,boul. MaricourtSaint Hubert,Quebec, CDN, J3Y 1S8 Driving Directions: Notes: Water Available: water is available Season / Operational: Open mid May through mid October; 24 hou Dump Station User Fee: Free</desc>
</wpt>
<wpt lat="45.48085" lon="-75.60417">
<name>ville de Gatineau Usine d&#x27;epuration des eaux usees</name>
<desc>Address: 858 Notre DameGatineau,Quebec,CDN, J8P 1N8 Driving Directions: Notes: turn into the driveway and go about 1/4 mile to the sign on a cement building that says Communaute urbaine de l&#x27;outaouais service de l&#x27;environment,reception des boues des fosses septique; behind the double brown doors is a hose with non potable water; the RV dump is a hole in the asphalt in front of the door Water Available: rinse water (non-potable) available Season / Operationa Dump Station User Fee: Free</desc>
</wpt>
<wpt lat="45.53217" lon="-73.93178">
<name>Service de SA&#xA9;curitA&#xA9; Incendie Intermunicipal</name>
<desc>Address: 2960 Boulevard des PromenadesSainte-Marthe-sur-le-Lac,Quebec,CDN, J0N 1P0 Driving Directions: Notes: Fire Station Water Available: water is available Season / Operational: Open year round; 24 hou Dump Station User Fee: Free</desc>
</wpt>
<wpt lat="45.56753" lon="-62.64501">
<name>Irving Mainway</name>
<desc>Address: 5197 East River RoadNew Glasgow,Nova Scotia,CDN, B2H Driving Directions: Trans Canada Hwy. 104 Exit 25; North 1/4 km on Left,the Mainway Service Station will be on your Left Notes: food supplies,snacks etc, fuel (gas, diesel &#x26;amp;propane are available); this is a very basic dump, just lift a cover and the dump is through a grating into the municipal sewer system, but as reported it does get rid of the sludge; there are a few man hole covers in this area some are welded closed; Acadian Bus Lines depot Water Available: no water available Season / Operationa Dump Station User Fee: Free</desc>
</wpt>
<wpt lat="45.56914" lon="-73.86686">
<name>City Works Public Dump Site</name>
<desc>Address: Saint-Eustache,Quebec,CDN, J7P Driving Directions: turn off Chemin de la Grande on to 25 Avenue and go towards river front park,park entrance is on the Right, there is a building on the left with water and a dump station out front Notes: it make be a tight squeeze for larger rigs towing a vehicle but most should be able to make the turn or turn around in the park parking lot Water Available: Season / Operationa Dump Station User Fee: Free</desc>
</wpt>
<wpt lat="45.5758" lon="-73.83525">
<name>Dump Station</name>
<desc>Address: 3985 rue SeguinLaval,Quebec,CDN, H7R 5H2 Driving Directions: dump station is straight in front of the treatment plant offices Notes: turns may be tight but large tractor trailers use the area as well Water Available: rinse water (non-potable) available Season / Operational: Open Monday to Friday 7:30AM - 4:30PM; until 8:30PM May to Octob Dump Station User Fee: Free</desc>
</wpt>
<wpt lat="45.58857" lon="-70.90375">
<name>Canadian Tire</name>
<desc>Address: 3642 Rue LavalLac-Megantic,Quebec,CDN, G6B 1A5 Driving Directions: Notes: Water Available: Season / Operationa Dump Station User Fee: Free</desc>
</wpt>
<wpt lat="45.60059" lon="-76.486">
<name>Mill Dam Park</name>
<desc>Address: Shawville,Quebec,CDN, J0X Driving Directions: off Hwy. 148 then Clarendon Street Notes: Water Available: rinse water (non-potable) available Season / Operational: Open year rou Dump Station User Fee: Donation requested</desc>
</wpt>
<wpt lat="45.60939" lon="-73.44409">
<name>Boucherville City</name>
<desc>Address: 650,chemin du LacBoucherville,Quebec, CDN, J4B 6X3 Driving Directions: across the street,in front of the public works facility Notes: Water Available: water is available; April through November only Season / Operational: Open year round; 24 hou Dump Station User Fee: Free</desc>
</wpt>
<wpt lat="45.61678" lon="-61.97099">
<name>Shell Gas Station/Sobeys Express</name>
<desc>Address: 124 Beech Hill RoadAntigonish,Nova Scotia,CDN, B2G 0B4 Driving Directions: Trans Canada Hwy. 104 Exit 33,exit roundabout onto Beech Hill Road Notes: Water Available: potable and rinse water (non-potable) available Season / Operational: Open year rou Dump Station User Fee: Free</desc>
</wpt>
<wpt lat="45.6261" lon="-65.0236">
<name>Fundy National Park - Chigneto North Campground</name>
<desc>Address: Alma,New Brunswick,CDN, E8A Driving Directions: Route 114 off Route 1; Exit 211; 4 km (2.5 miles) from Alma; Fundy National Park Notes: Water Available: water is available Season / Operational: Open mid May through mid Octob Dump Station User Fee: $8.80</desc>
</wpt>
<wpt lat="45.6261" lon="-65.0236">
<name>Fundy National Park - Headquarters Campground</name>
<desc>Address: Alma,New Brunswick,CDN, E8A Driving Directions: Route 114; off Route 1 Exit 211; Fundy National Park; 1/2 km (3/10 mile) from Alma Notes: Water Available: water is available Season / Operational: Open June through Septemb Dump Station User Fee: $8.80</desc>
</wpt>
<wpt lat="45.6261" lon="-65.0236">
<name>Fundy National Park - Point Wolfe Campground</name>
<desc>Address: Alma,New Brunswick,CDN, E8A Driving Directions: Route 114; off Route 1 Exit 211; Fundy National Park Notes: Water Available: water is available Season / Operational: Open June through Septemb Dump Station User Fee: $8.80</desc>
</wpt>
<wpt lat="45.63039" lon="-72.93357">
<name>Saint-Hyacinthe,Municipal Dump Station</name>
<desc>Address: 1105 Lemire StreetSaint-Hyacinthe,Quebec,CDN, J2T 1L9 Driving Directions: near municipal garade Notes: Water Available: potable and rinse water (non-potable) available Season / Operational: Open mid May through mid Octob Dump Station User Fee: Free</desc>
</wpt>
<wpt lat="45.65209" lon="-74.32873">
<name>Lachute Municipal Works</name>
<desc>Address: 507 Catherine StreetLachute,Quebec,CDN, J8H Driving Directions: Notes: Water Available: potable and rinse water (non-potable) available Season / Operational: Open year round; 24 hou Dump Station User Fee: Free</desc>
</wpt>
<wpt lat="45.65881" lon="-73.74846">
<name>Dump Station</name>
<desc>Address: Laval,Quebec,CDN, H7X 2X6 Driving Directions: off Terrasse Brissette Notes: treatment plant Water Available: rinse water (non-potable) available Season / Operationa Dump Station User Fee: Free</desc>
</wpt>
<wpt lat="45.67038" lon="-73.43109">
<name>Varennes Dump Station</name>
<desc>Address: 101,rue de la Rivii&#xBF;1&#x2044;2reVarennes,Quebec, CDN, J3X 1P7 Driving Directions: Notes: in the curve Water Available: potable and rinse water (non-potable) available Season / Operational: Open May through Novemb Dump Station User Fee: Free</desc>
</wpt>
<wpt lat="45.72879" lon="-73.6755">
<name>Public Dump Station</name>
<desc>Address: 3800 Pascal-GagnonTerrebonne,Quebec,CDN, J6X Driving Directions: Notes: Water Available: rinse water (non-potable) available Season / Operationa Dump Station User Fee: Free</desc>
</wpt>
<wpt lat="45.72883" lon="-73.67548">
<name>Public RV Dump Station</name>
<desc>Address: 3800 Pascal-GagnonTerrebonne,Quebec,CDN, J6X Driving Directions: Notes: Water Available: rinse water (non-potable) available Season / Operationa Dump Station User Fee: Free</desc>
</wpt>
<wpt lat="45.73588" lon="-73.49148">
<name>Station de vidange Repentigny</name>
<desc>Address: 125 rue de la CouronneRepentigny,Quebec,CDN, J5Z 0B3 Driving Directions: Notes: Water Available: rinse water (non-potable) available Season / Operational: Open May through Octob Dump Station User Fee: Free</desc>
</wpt>
<wpt lat="45.73626" lon="-65.50105">
<name>Irving Gas Station</name>
<desc>Address: Sussex,New Brunswick,CDN, E4P Driving Directions: Route 1 Exit 195 Notes: Water Available: Season / Operationa Dump Station User Fee: $25.00</desc>
</wpt>
<wpt lat="45.74033" lon="-71.80436">
<name>RV Dump Station</name>
<desc>Address: Wotton,Quebec,CDN, J0A 1N0 Driving Directions: Gosselin street (between civic number 592 and 600); opposite the police station Notes: Water Available: potable and rinse water (non-potable) available Season / Operational: Open mid May through mid Octob Dump Station User Fee: Free</desc>
</wpt>
<wpt lat="45.78006" lon="-71.94227">
<name>Arena Connie Dion</name>
<desc>Address: 100 Gaspe RueAsbestos,Quebec,CDN, J1T 3N1 Driving Directions: Notes: e l&#x27;entree d&#x27;Asbestos il y a un camion 200 tonnes e droite,juste e se diriger e cete de ce camion et vous aller voir pour vider votre fausse septique (at the entrance there is an asbestos truck 200 tons Right, just move next to the truck and you go to empty your septic tank) Water Available: rinse water (non-potable) available Season / Operational: Open May through Septemb Dump Station User Fee: Free</desc>
</wpt>
<wpt lat="45.79792" lon="-77.11426">
<name>Irving Big Stop</name>
<desc>Address: 1751 Paul Martin DrivePembroke,Ontario,CDN, K8A 6W5 Driving Directions: Hwy. 17 &#x26;amp;Hwy. 41 Notes: located at rear of building,steel plate cover access, slide off open pit concept, it works but stinky Water Available: Season / Operationa Dump Station User Fee: Free</desc>
</wpt>
<wpt lat="45.8066" lon="-65.3008">
<name>Lone Pine Park Campground and Cabins</name>
<desc>Address: 45 Lone Pine RoadPenobsquis,New Brunswick,CDN, E4E 5T3 Driving Directions: Trans Canada Hwy. (Hwy. 1) Exit 198; 19 km (11.8 miles) East of Sussex Notes: Water Available: water is available Season / Operational: Open May through Septemb Dump Station User Fee: Free</desc>
</wpt>
<wpt lat="45.84661" lon="-71.14651">
<name>Camping Parc National de Frontenac Baie Sauvage</name>
<desc>Address: 599 Chemin des RoyLambton,Quebec,CDN, G0M 1H0 Driving Directions: Notes: Water Available: water is available Season / Operational: Open mid May through mid Octob Dump Station User Fee: $8.80</desc>
</wpt>
<wpt lat="45.85147" lon="-66.56358">
<name>RV World</name>
<desc>Address: 15 Chaparral RoadWaasis,New Brunswick,CDN, E3B 9Z4 Driving Directions: take Exit 297 East/West on Highway 2 between Fredericton and Oromocto,directly across from the Lincoln Big Stop Irving Notes: RV World is a complete rv dealership with sales,service, parts and rentals; also fill propane tanks and motorhomes Water Available: potable and rinse water (non-potable) available Season / Operational: Open year rou Dump Station User Fee: $10.00</desc>
</wpt>
<wpt lat="45.8517" lon="-73.75491">
<name>Public Sani Dump Station</name>
<desc>Address: 7e AvenueSaint-Lin-Laurentides,Quebec,CDN, J0H Driving Directions: near arena Notes: Water Available: water is available Season / Operationa Dump Station User Fee: Free</desc>
</wpt>
<wpt lat="45.88589" lon="-74.18115">
<name>Garage Municipal Saint-Sauveur</name>
<desc>Address: 2125,chemin Jean-AdamSaint-Sauveur,Quebec, CDN, J0R 1R4 Driving Directions: Notes: easy access Water Available: water is available Season / Operational: Open year rou Dump Station User Fee: Free</desc>
</wpt>
<wpt lat="45.89565" lon="-72.53157">
<name>Tourisme Drummond - SDED</name>
<desc>Address: 1350 Rue Jean-Berchmans-MichaudDrummondville,Quebec,CDN, J2C 2Z5 Driving Directions: Notes: Tourist information along the 20 Trans Canadian Highway Water Available: Season / Operationa Dump Station User Fee: Free</desc>
</wpt>
<wpt lat="45.96789" lon="-62.70911">
<name>Northumberland Provincial Park</name>
<desc>Address: Woods Islands,Prince Edward Island,CDN, C0A 1R0 Driving Directions: from Wood Islands Ferry go 3 km (2 miles) East on Hwy. 4 Notes: Water Available: water is available Season / Operational: Open June through Septemb Dump Station User Fee: $10.00</desc>
</wpt>
<wpt lat="46.00407" lon="-73.4555">
<name>Station de traitement d&#x27;eau de Joliette</name>
<desc>Address: 485 Rue P.H. DesrosiersJoliette,Quebec,CDN, J6E 8V2 Driving Directions: Notes: Water Available: potable and rinse water (non-potable) available Season / Operational: Open May through Novemb Dump Station User Fee: Free</desc>
</wpt>
<wpt lat="46.01761" lon="-73.13319">
<name>Garage Municipale Sorel-Tracy</name>
<desc>Address: 1215 Rue AntayaSorel-Tracy,Quebec,CDN, J3R 5G3 Driving Directions: Notes: Water Available: potable and rinse water (non-potable) available Season / Operationa Dump Station User Fee: Free</desc>
</wpt>
<wpt lat="46.0361" lon="-66.9818">
<name>Mactaquac Provincial Park</name>
<desc>Address: 1265 Route 105Mactaquac,New Brunswick,CDN, E6L 1B5 Driving Directions: Hwy. 2 &#x26;amp;105 Notes: Water Available: water is available Season / Operational: Open mid May through mid Octob Dump Station User Fee: Free</desc>
</wpt>
<wpt lat="46.06404" lon="-71.95149">
<name>Municipal Public RV Dump Station</name>
<desc>Address: 159 rue St-DenisVictoriaville,Quebec,CDN, G6P 4Y1 Driving Directions: Notes: Water Available: water is available Season / Operationa Dump Station User Fee: Free</desc>
</wpt>
<wpt lat="46.0689" lon="-71.35054">
<name>Bureau d&#x27;information touristique Office de Tourisme de la MRC des Appalaches</name>
<desc>Address: 2600 Boulevard Frontenac OuestThetford Mines,Quebec,CDN, G6H 2C6 Driving Directions: very Easy to find,visible from the road Notes: Water Available: rinse water (non-potable) available Season / Operational: Open May through Octob Dump Station User Fee: Free</desc>
</wpt>
<wpt lat="46.07482" lon="-64.82488">
<name>Work &#x26;amp; Play Limited</name>
<desc>Address: 199 Baig Blvd.Moncton,New Brunswick,CDN, E1E 1C9 Driving Directions: Baig Boulevard East of Edinborough Drive Notes: RV supply depot so you can also purchase sanitation supplies if needed Water Available: rinse water (non-potable) available Season / Operational: Open May through Octob Dump Station User Fee: Free</desc>
</wpt>
<wpt lat="46.07549" lon="-64.76945">
<name>Petro-Canada Station</name>
<desc>Address: 500 Hillsborough RoadRiverview,New Brunswick,CDN, E1B Driving Directions: Notes: lots of room to manoevre; convenience store on site with bottled water inside; RV dump is located between last gas pump &#x26;amp;Hillsborough Road Water Available: no water available Season / Operational: Open year rou Dump Station User Fee: Free</desc>
</wpt>
<wpt lat="46.131" lon="-64.8284">
<name>Camper&#x27;s City / R.V. Resort Inc.</name>
<desc>Address: 138 Queensway DriveMoncton,New Brunswick,CDN, E1G 2L2 Driving Directions: Route 2 Exit 454 Notes: Water Available: potable and rinse water (non-potable) available Season / Operational: Open mid May through Octob Dump Station User Fee: $25.00</desc>
</wpt>
<wpt lat="46.14017" lon="-62.46997">
<name>Panmure Island Provincial Park</name>
<desc>Address: Panmure Island,Prince Edward Island,CDN, C0A IR0 Driving Directions: junction Hwy. 17 and Hwy. 347,3 km (2 miles) North on Hwy. 347 Notes: Water Available: water is available Season / Operational: Open late June through mid Septemb Dump Station User Fee: $10.00</desc>
</wpt>
<wpt lat="46.18497" lon="-82.93339">
<name>Tourist Information Center</name>
<desc>Address: 243 Causley StreetBlind River,Ontario,CDN, N0P Driving Directions: Hwy. 17 (Trans-Canada); heading East thru town; on Left hand side at Tourist Info behind Firehall Notes: dump station with sewer flush Water Available: water is available; available only from 8:00AM - 5:00PM Season / Operational: Open May through mid Octob Dump Station User Fee: Free</desc>
</wpt>
<wpt lat="46.20634" lon="-74.59413">
<name>Bureau d&#x27;accueil touristique de Mont-Tremblant (Village)</name>
<desc>Address: 5080 Montee RyanMont-Tremblant,Quebec,CDN, J8E 1S4 Driving Directions: Notes: dump station is in the parking behind the building Water Available: water is available Season / Operational: Open year round; 24 hou Dump Station User Fee: Free</desc>
</wpt>
<wpt lat="46.22487" lon="-64.5118">
<name>Esso Gas Station</name>
<desc>Address: 606 main StreetShediac,New Brunswick,CDN, E4P 2H3 Driving Directions: Route 133 highway marker Notes: propane also available from a seperate vendor Water Available: potable and rinse water (non-potable) available Season / Operational: Open May through Octob Dump Station User Fee: $5.00 or Free with fuel fill up</desc>
</wpt>
<wpt lat="46.2313" lon="-64.5025">
<name>Parlee Beach Provincial Park</name>
<desc>Address: 52 Belliveau Beach RoadPointe-Du-Chene,New Brunswick,CDN, E4P 3W4 Driving Directions: Route 15,Exit 37, on to Route 133 Notes: Water Available: water is available Season / Operational: Open June through mid Septemb Dump Station User Fee: Free</desc>
</wpt>
<wpt lat="46.24158" lon="-63.19692">
<name>Jack&#x27;s Truck Wash</name>
<desc>Address: 76 W.B. MacPhail DriveCornwall,Prince Edward Island,CDN, C0A 1H5 Driving Directions: Cornwall Industrial Park Notes: Water Available: water is available Season / Operational: Open year rou Dump Station User Fee: $30.00</desc>
</wpt>
<wpt lat="46.295" lon="-72.54361">
<name>Bureau d&#x27;information touristique / Tourist Information Bureau</name>
<desc>Address: 1555 Port Royal Blvd.Becancour,Quebec,CDN, G9H 4Y2 Driving Directions: in St. Gregoire District; RV dump station located near Hwy. 55 Southbound Exit 176 (first exit after crossing the bridge) Notes: Water Available: Season / Operationa Dump Station User Fee: Free</desc>
</wpt>
<wpt lat="46.30072" lon="-83.78367">
<name>Bruce Mines Campground</name>
<desc>Address: Bruce Mines,Ontario,CDN, P0R 1C0 Driving Directions: turn South onto Williams Street,campground is on the Left Notes: dump station is right beside campground office building Water Available: water is available Season / Operationa Dump Station User Fee: $7.00</desc>
</wpt>
<wpt lat="46.36903" lon="-79.91452">
<name>Public RV Dump Station</name>
<desc>Address: Sturgeon Falls,Ontario,CDN, N0G Driving Directions: coming from North Bay (Hwy. 17 West),turn Right at first set of lights; coming from Sudbury (Hwy. 17 East), turn Left at fourth set of lights (turn Left at the A&#x26;amp;) Notes: RV dump station on the Left side almost to corner of John Street; next to the fence for the public park Water Available: potable and rinse water (non-potable) available Season / Operational: Open May through mid Octob Dump Station User Fee: Free</desc>
</wpt>
<wpt lat="46.37349" lon="-72.52237">
<name>Centre de services aux citoyens</name>
<desc>Address: 200 Rue de GrandmontTrois-Rivieres,Quebec,CDN, G8T 2R5 Driving Directions: near the Arena Jean Guy Talbot Notes: with a no drinking water hose to clean the spot after use Water Available: rinse water (non-potable) available Season / Operationa Dump Station User Fee: Free</desc>
</wpt>
<wpt lat="46.39557" lon="-82.65541">
<name>Westview Trailer Park</name>
<desc>Address: Elliot Lake,Ontario,CDN, P0M Driving Directions: Hwy. 108 and Simpson Road; first street on Right after second street light Notes: camping is $25.00 per night (2007) Water Available: water is available; at camp sites Season / Operational: Open late May through mid Octob Dump Station User Fee: Free</desc>
</wpt>
<wpt lat="46.40222" lon="-63.85029">
<name>Linkletter Provincial Park</name>
<desc>Address: 437 Linkletter RoadSummerside,Prince Edward Island,CDN, C0B 1V0 Driving Directions: Route 11; 4 km (2.5 miles) East of Summerside Notes: Water Available: water is available Season / Operational: Open June through Septemb Dump Station User Fee: $11.00</desc>
</wpt>
<wpt lat="46.408383" lon="-80.115815">
<name>Verner Arena</name>
<desc>Address: Verner,Ontario,CDN, P0H Driving Directions: coming from North Bay (Hwy. 17 East),turn Left on Hwy. 64 to Gingras Avenue, turn Left on Gingras Avenue to the arena; coming from Sudbury, turn Right on Hwy. 64, then Left on Gingras Avenue to the arena Notes: Water Available: Season / Operational: Open May through mid Octob Dump Station User Fee: Free</desc>
</wpt>
<wpt lat="46.41607" lon="-63.78057">
<name>Esso Gas Station</name>
<desc>Address: 495 Granville StreetSummerside,Prince Edward Island,CDN, C1N 5J4 Driving Directions: Notes: a square beside the diesel pump Water Available: no water available Season / Operational: Open year rou Dump Station User Fee: $5.00 or Free with purchase</desc>
</wpt>
<wpt lat="46.46594" lon="-81.03268">
<name>Sudbury Waste Water Treatment Plant</name>
<desc>Address: 1271 Kelly Lake RoadSudbury,Ontario,CDN, P3E 5P4 Driving Directions: head West from Brady Street bear Right at Douglas Street turn Left at Lorne Street turn Left at Kelly Lake Road; waste water treatment plant found on Right Notes: Water Available: rinse water (non-potable) available; May through October Season / Operational: Open year round; 24 hou Dump Station User Fee: Free</desc>
</wpt>
<wpt lat="46.47803" lon="-62.13861">
<name>Campbells Cove Provincial Park</name>
<desc>Address: Campbells Cove,Prince Edward Island,CDN, C0A Driving Directions: Route 16; 5 km East of Elmira Notes: Water Available: water is available Season / Operational: Open June through Septemb Dump Station User Fee: Free</desc>
</wpt>
<wpt lat="46.51642" lon="-72.7561">
<name>Arena Gilles-Bourassa</name>
<desc>Address: 1607 117e RueShawinigan,Quebec,CDN, G9P 3G8 Driving Directions: Notes: behind the arena,follow signs Water Available: potable and rinse water (non-potable) available Season / Operational: Open May through Novemb Dump Station User Fee: Free</desc>
</wpt>
<wpt lat="46.5247" lon="-84.4041">
<name>Water Treatment Plant</name>
<desc>Address: 55 Allens Side RoadSault Ste. Marie,Ontario,CDN, N0P Driving Directions: South of Allens Side Road &#x26;amp;Second Line West intersection by about three blocks; West of Second Line West,near the slag dump from Essar Steel Notes: Water Available: rinse water (non-potable) available Season / Operationa Dump Station User Fee: Free</desc>
</wpt>
<wpt lat="46.53818" lon="-84.31797">
<name>Water Tower Shell Service Station</name>
<desc>Address: 386 Great Northern RoadSault Ste. Marie,Ontario,CDN, P6B 4Z7 Driving Directions: Hwy. 17 Notes: located between the car wash and the corner store,one way with a tight corner; full fuel centre including diesel, gas, car wash and RV dump station Water Available: Season / Operationa Dump Station User Fee: Free</desc>
</wpt>
<wpt lat="46.55095" lon="-75.50976">
<name>Public RV Dump Station</name>
<desc>Address: 660 Achim StreetMont-Laurier,Quebec,CDN, J9L 2H4 Driving Directions: Notes: easy access Water Available: potable and rinse water (non-potable) available Season / Operational: Open mid May through mid Octob Dump Station User Fee: Free</desc>
</wpt>
<wpt lat="46.55739" lon="-63.70363">
<name>Cabot Beach Provincial Park</name>
<desc>Address: 49 Malpeque Route 20Malpeque,Prince Edward Island,CDN, C1E 1V4 Driving Directions: Route 20; 16 km (10 miles) North of Kensington Notes: Water Available: water is available Season / Operational: Open May through Septemb Dump Station User Fee: $11.40</desc>
</wpt>
<wpt lat="46.5617" lon="-65.1958">
<name>Kouchibouguac National Park</name>
<desc>Address: Kouchibouguac,New Brunswick,CDN, E4X Driving Directions: Hwy. 11 &#x26;amp;Hwy. 134 Exit 75 Notes: Water Available: water is available Season / Operational: Open mid May through mid Octob Dump Station User Fee: $8.80</desc>
</wpt>
<wpt lat="46.5672" lon="-81.2114">
<name>Chelmsford Waste Water Treatment Plant</name>
<desc>Address: 265 Laurette StreetChelmsford,Ontario,CDN, P0M 1L0 Driving Directions: head East from Brady Street,turn Left at Paris Street, turn Left at Elm Street, continue on Hwy. 144, turn Left at Leroux Street, turn Right at Laurette Street Notes: Water Available: Season / Operational: Open year round; between mid October through late May Monday to Friday 7:30AM - 3:00PM; late May through mid October Mondays to Thursdays 8:00AM - 7:30PM,Fridays closed, Sundays 12:00PM - 7:30 Dump Station User Fee: Free</desc>
</wpt>
<wpt lat="46.57597" lon="-63.96533">
<name>Green Park Provincial Park</name>
<desc>Address: 364 Greenpark RoadPort Hill,Prince Edward Island,CDN, C0B 1V0 Driving Directions: Route 12; 6 km (3.7 miles) East of Tyne Valley Notes: Water Available: water is available Season / Operational: Open June through Septemb Dump Station User Fee: Free</desc>
</wpt>
<wpt lat="46.61963" lon="-64.380669">
<name>Cedar Dunes Provincial Park</name>
<desc>Address: 265 Cedar Dunes Park RoadCape Egmont,Prince Edward Island,CDN, C0B 1V0 Driving Directions: Notes: Water Available: water is available Season / Operational: Open late June through Septemb Dump Station User Fee: Free</desc>
</wpt>
<wpt lat="46.6224" lon="-64.38258">
<name>Cedar Dunes Provincial Park</name>
<desc>Address: O&#x27;Leary,Prince Edward Island,CDN, C0B 1V0 Driving Directions: on Route 14 Notes: Water Available: water is available Season / Operational: Open late June through Septemb Dump Station User Fee: Free</desc>
</wpt>
<wpt lat="46.6224" lon="-64.38258">
<name>Cedar Dunes Provincial Park</name>
<desc>Address: West Point,Prince Edward Island,CDN, C0B Driving Directions: Route 14; 24 km (15 miles) South of O&#x27;Leary Notes: Water Available: water is available Season / Operational: Open June through Septemb Dump Station User Fee: Free</desc>
</wpt>
<wpt lat="46.6233" lon="-81.02051">
<name>Valley East Wastewater Treatment Plant</name>
<desc>Address: 9999 Yorkshire DriveSudbury,Ontario,CDN, P3N 1R9 Driving Directions: head East from Brady Street,turn Left at Paris Street, continue on Notre Dame Avenue, continue on RR-80, continue on Desmarais Road, turn Left at Yorkshire Drive Notes: Water Available: rinse water (non-potable) available Season / Operational: Open year round; Monday to Friday 7:30AM - 3:30 Dump Station User Fee: Free</desc>
</wpt>
<wpt lat="46.75423" lon="-71.17919">
<name>Dump Station</name>
<desc>Address: 220 chemin des i&#xBF;1&#x2044;2lesLevis,Quebec,CDN, G6W Driving Directions: Notes: Water Available: Season / Operationa Dump Station User Fee: *</desc>
</wpt>
<wpt lat="46.75549" lon="-71.18007">
<name>St. David</name>
<desc>Address: Levis,Quebec,CDN, G0R Driving Directions: Chemin des Iles; Autoroute 20 - Sortie 321 au sud est du carrefour Notes: Water Available: Season / Operationa Dump Station User Fee: Free</desc>
</wpt>
<wpt lat="46.76652" lon="-71.34792">
<name>Parc Chaudiere</name>
<desc>Address: 961 Boulevard de la ChaudiereQuebec City,Quebec,CDN, G1K 5G7 Driving Directions: located on Chaudiere Blvd. just in front of J Armand Bombardier street in a suburb West of Quebec City,exit Legendre on Highway 40 Notes: Water Available: water is available Season / Operational: Open May through Octob Dump Station User Fee: Free</desc>
</wpt>
<wpt lat="46.79145" lon="-71.3501">
<name>Rue Yvon Dolbec</name>
<desc>Address: 1255 Avenue Jules-VerneL&#x27;Ancienne-Lorette,Quebec,CDN, G2E 0A3 Driving Directions: go to the back of the road,in front of industrial building Notes: dumpstation de la ville Water Available: rinse water (non-potable) available Season / Operational: Open May through Octob Dump Station User Fee: Free</desc>
</wpt>
<wpt lat="46.81064" lon="-71.2025">
<name>Garage Voirie Municipal</name>
<desc>Address: 8 rue St-LucPont-Rouge,Quebec,CDN, G1K 4H4 Driving Directions: Notes: Water Available: Season / Operational: Open May through Octob Dump Station User Fee: Free</desc>
</wpt>
<wpt lat="46.82493" lon="-67.73545">
<name>Springwater Truck Stop</name>
<desc>Address: Four Falls,New Brunswick,CDN, E3Z Driving Directions: TCH 2 Notes: Water Available: Season / Operationa Dump Station User Fee: $15.00</desc>
</wpt>
<wpt lat="46.88206" lon="-71.18217">
<name>RV Dump Station</name>
<desc>Address: Beauport,Quebec,CDN, G1C 3K4 Driving Directions: Boulevard Raymond; off autoroute Fexlix 40,Exit 321 North, boul Armand Paris, Right on Adanac, Left on Boulevard Raymond Notes: Water Available: water is available Season / Operationa Dump Station User Fee: Free</desc>
</wpt>
<wpt lat="46.89072" lon="-71.30344">
<name>Halte VR de Quebec</name>
<desc>Address: 9300,rue de la FauneQuebec City,Quebec, CDN, G1G 5H9 Driving Directions: Notes: Water Available: potable and rinse water (non-potable) available Season / Operationa Dump Station User Fee: *</desc>
</wpt>
<wpt lat="46.89074" lon="-71.83825">
<name>Location M Paquette</name>
<desc>Address: 144,St-JacquesSaint-Raymond,Quebec, CDN, G3L 3Y6 Driving Directions: Notes: RV parts,propane, solar panel parts and service Water Available: water is available Season / Operational: Open year round; 24 hou Dump Station User Fee: Free</desc>
</wpt>
<wpt lat="46.983" lon="-70.55974">
<name>Ultramar Gasoline &#x26;amp; Car Wash</name>
<desc>Address: 50 Boulevard Tache OuestMontmagny,Quebec,CDN, G5V 3B1 Driving Directions: Route 132 about 1 mile from Hwy. 20; Exit 376 (Route 228 North) Notes: in front of Tim Hortons Restaurant Water Available: Season / Operationa Dump Station User Fee: $5.00</desc>
</wpt>
<wpt lat="47.09183" lon="-55.74789">
<name>Town RV Dump</name>
<desc>Address: Grand Bank,Newfoundland and Labrador,CDN, A0A Driving Directions: Hwy. 220; Grandview Blvd. Notes: Water Available: potable and rinse water (non-potable) available Season / Operationa Dump Station User Fee: Free</desc>
</wpt>
<wpt lat="47.17706" lon="-55.15795">
<name>Marystown Public RV Dump Station</name>
<desc>Address: Marystown,Newfoundland and Labrador,CDN, A0E 2M0 Driving Directions: St. Mary&#x27;s Road; next to St. Mary&#x27;s Church across from the ball field; up hill from YMCA Notes: Water Available: rinse water (non-potable) available Season / Operationa Dump Station User Fee: Free</desc>
</wpt>
<wpt lat="47.35714" lon="-68.22885">
<name>Public RV Dump Station</name>
<desc>Address: 247 rue PrincipaleSaint-Basile,New Brunswick,CDN, E7C 1H7 Driving Directions: Hwy. 144; arena on the Right side of the parking lot Notes: Water Available: water is available Season / Operationa Dump Station User Fee: Free</desc>
</wpt>
<wpt lat="47.37227" lon="-61.91269">
<name>Madeleine Automobiles Esso</name>
<desc>Address: 1401,road de La VerniA&#x83;A reL&#x27;etang-du-Nord,Quebec, CDN, G4T 3G1 Driving Directions: Road de La VerniA&#x83;A re and Chemin de la Martinique Notes: Water Available: rinse water (non-potable) available Season / Operational: Open year round; 7:00AM - 11:00 Dump Station User Fee: $8.00 or Free with fuel fill up ($50.00)</desc>
</wpt>
<wpt lat="47.37304" lon="-68.30312">
<name>Grey Rock Power Centre</name>
<desc>Address: 100 Grey Rock RoadEdmundston,New Brunswick,CDN, E7C 0B6 Driving Directions: Notes: Water Available: rinse water (non-potable) available Season / Operational: Open year rou Dump Station User Fee: Free</desc>
</wpt>
<wpt lat="47.37862" lon="-61.86493">
<name>DA&#x83;A&#xA9;panneur du Village</name>
<desc>Address: 325,road PrincipalCap-aux-Meules,Prince Edward Island, CDN, G4T 1E2 Driving Directions: Notes: metal plate between gas pump and street Water Available: no water available Season / Operational: Open year rou Dump Station User Fee: Free</desc>
</wpt>
<wpt lat="47.40017" lon="-53.28784">
<name>Gushue&#x27;s Pond Park</name>
<desc>Address: Gushues Pond,Newfoundland and Labrador,CDN, A0A 3S0 Driving Directions: Notes: Water Available: Season / Operational: Open mid May through early Septemb Dump Station User Fee: *</desc>
</wpt>
<wpt lat="47.42662" lon="-68.37721">
<name>Palladian</name>
<desc>Address: Edmundston,New Brunswick,CDN, E7B 1H3 Driving Directions: take Exit 8 off of Highway 2 and turn onto Principale,follow Principale to Rue De Park and turn Left into the Palladian recreational center, sani dump is located across the street from the Palladiam Notes: Water Available: no water available Season / Operationa Dump Station User Fee: Free</desc>
</wpt>
<wpt lat="47.5123" lon="-67.39055">
<name>Mount Carlton Provincial Park</name>
<desc>Address: 3-33 Rue PelletierSaint-Quentin,New Brunswick,CDN, E8A 1T9 Driving Directions: Route 385 and Route 180; 40 km (25 miles) from Saint-Quentin Notes: Water Available: water is available Season / Operational: Open mid May through mid Octob Dump Station User Fee: Free</desc>
</wpt>
<wpt lat="47.53111" lon="-69.82057">
<name>Kamouraska Tourist Information</name>
<desc>Address: Saint-Pascal,Quebec,CDN, G0L 3Y0 Driving Directions: at tourist info kiosk on A20 across from motel de la montagne Notes: Water Available: Season / Operationa Dump Station User Fee: Free</desc>
</wpt>
<wpt lat="47.53748" lon="-64.91544">
<name>Autoplex 2000</name>
<desc>Address: 3037 Principale StreetTracadie-Sheila,New Brunswick,CDN, E1X 1A2 Driving Directions: off Highway 11 into Tracadie-Sheila,take Rue Principale until you see the Home Hardware store on the Left, Autoplex 2000 is the RV dealer on the Right side of the road, the unmarked dump station is directly at the side of the road for easy access Notes: Water Available: rinse water (non-potable) available Season / Operationa Dump Station User Fee: Free</desc>
</wpt>
<wpt lat="47.58762" lon="-59.18812">
<name>Public RV Dump Station</name>
<desc>Address: Port aux Basques,Newfoundland and Labrador,CDN, C0A Driving Directions: in the Industry Park area of town Notes: there&#x27;s a sign next to the RCMP station Water Available: potable and rinse water (non-potable) available Season / Operationa Dump Station User Fee: Free</desc>
</wpt>
<wpt lat="47.58779" lon="-59.18756">
<name>Public RV Dump Station</name>
<desc>Address: Channel-port-aux-basques,Newfoundland and Labrador,CDN, A0M Driving Directions: from Trans Canada Highway turn onto Grand Bay Road West,follow across small bridge/break water, turn onto Hopedale Road, RV dump station is at the end of a dead end road on the Right; it is inconspicuous and not marked well, there is a small commercial gas plant on the Left side of the road as you drive towards the dump station Notes: open weather/ice/snow permitting; large rigs can make the turn around at the end of the road,the loop is big enough Water Available: water is available Season / Operational: Open year rou Dump Station User Fee: *</desc>
</wpt>
<wpt lat="47.69488" lon="-70.22515">
<name>Camping parc national des Hautes-Gorges-riviere-Malbaie le cran</name>
<desc>Address: 4 Rue MaisonneuveClermont,Quebec,CDN, G4A 1J6 Driving Directions: Notes: Water Available: water is available Season / Operationa Dump Station User Fee: $8.80</desc>
</wpt>
<wpt lat="47.7096" lon="-65.70201">
<name>Public RV Dump Station</name>
<desc>Address: 218 rue du Parc Est (Park Street)Beresford,New Brunswick,CDN, E8K 1R1 Driving Directions: far side of the parking lot behind the ice rink Notes: Water Available: Season / Operational: Open year rou Dump Station User Fee: Free</desc>
</wpt>
<wpt lat="47.79469" lon="-64.92909">
<name>Rue Du Quai</name>
<desc>Address: Caraquet,New Brunswick,CDN, E1W 1A5 Driving Directions: road side Notes: Water Available: water is available Season / Operationa Dump Station User Fee: *</desc>
</wpt>
<wpt lat="47.8512" lon="-69.54185">
<name>Shell Gaz Station</name>
<desc>Address: 80 Boulevard CartierRiviere-du-Loup,Quebec,CDN, G5R 2M9 Driving Directions: Notes: behind the propane tank,the cover is located on a concrete slab Water Available: water is available Season / Operationa Dump Station User Fee: Free</desc>
</wpt>
<wpt lat="47.98441" lon="-66.69815">
<name>Sugarloaf Provincial Park</name>
<desc>Address: 727 Val D&#x27;Amour RoadAtolville,New Brunswick,CDN, E3N 4C9 Driving Directions: Route 11 Exit 415 Notes: Water Available: water is available Season / Operational: Open mid May through mid Octob Dump Station User Fee: Free</desc>
</wpt>
<wpt lat="48.03484" lon="-66.39973">
<name>Osprey Ultramar Truck Stop</name>
<desc>Address: Dalhousie,New Brunswick,CDN, E4N Driving Directions: off Highway 11 Exit 391 onto Miller Boulevard; Osprey Ultramar Truck stop is a big blue teepee shaped building Notes: easy access Water Available: water is available Season / Operationa Dump Station User Fee: Free</desc>
</wpt>
<wpt lat="48.05958" lon="-66.35402">
<name></name>
<desc>Public Dump Station Dalhousie Address: 106 Inch Arran AvenueDalhousie,New Brunswick,CDN, E8C 1Y6 Driving Directions: Notes: across road from Inch Arran Park,beside pump house building and near baseball diamond; marked on concrete barrier with painted arrows on ground to metal lid Water Available: no water available Season / Operational: Open year rou Dump Station User Fee: Free</desc>
</wpt>
<wpt lat="48.09711" lon="-77.82558">
<name>Carrefour du Nord-Ouest</name>
<desc>Address: 1801 3e AvenueVal-d&#x27;Or,Quebec,CDN, J9P 5K1 Driving Directions: Notes: Water Available: water is available Season / Operational: Open May through Septemb Dump Station User Fee: Free</desc>
</wpt>
<wpt lat="48.10045" lon="-77.77002">
<name>Beric Sports Inc.</name>
<desc>Address: 50 3e AvenueVal-d&#x27;Or,Quebec,CDN, J9P 1R2 Driving Directions: Notes: in the alley behind; dans la ruelle derriere Water Available: water is available Season / Operationa Dump Station User Fee: Free</desc>
</wpt>
<wpt lat="48.17195" lon="-53.98473">
<name>Co-Op RV Dump Station</name>
<desc>Address: 34 Shoal Harbour DriveClarenville,Newfoundland and Labrador,CDN, A5A 4J6 Driving Directions: Notes: Water Available: potable and rinse water (non-potable) available Season / Operational: Open May through Octob Dump Station User Fee: $5.00 or fee is waived for Co-Op Members</desc>
</wpt>
<wpt lat="48.22424" lon="-78.97633">
<name>Information Touristique</name>
<desc>Address: Rouyn-Noranda,Quebec,CDN, J9Y Driving Directions: Hwy. 117; Avenue Pierre LariviA re Notes: Water Available: rinse water (non-potable) available Season / Operationa Dump Station User Fee: *</desc>
</wpt>
<wpt lat="48.3259" lon="-70.87267">
<name>Petroles RL inc.</name>
<desc>Address: 1162 boulevard de la Grande-Baie-SudLa Baie,Quebec,CDN, G7B 1C5 Driving Directions: Notes: Water Available: Season / Operationa Dump Station User Fee: Free</desc>
</wpt>
<wpt lat="48.34774" lon="-69.40657">
<name>Public RV Dump Station</name>
<desc>Address: Les Escoumins,Quebec,CDN, G0T Driving Directions: watch for sign on Route 138 Notes: Water Available: rinse water (non-potable) available Season / Operational: Open year rou Dump Station User Fee: Free</desc>
</wpt>
<wpt lat="48.34985" lon="-89.35464">
<name>Fort William Historical Park</name>
<desc>Address: 1350 King RoadThunder Bay,Ontario,CDN, P7K 1L7 Driving Directions: from Hwy. 61 take Broadway Avenue West approximately 2.5 km,turn South on King Road which dead-ends into park after approx 1/2 km Notes: Water Available: potable and rinse water (non-potable) available Season / Operational: Open May through Septemb Dump Station User Fee: Free</desc>
</wpt>
<wpt lat="48.35415" lon="-68.75379">
<name>RV Rest Area</name>
<desc>Address: 3382,route 132 OuestRimouski,Quebec, CDN, G0L 1B0 Driving Directions: Notes: Water Available: potable and rinse water (non-potable) available Season / Operationa Dump Station User Fee: *</desc>
</wpt>
<wpt lat="48.36032" lon="-68.74077">
<name>Camping Parc National du Bic</name>
<desc>Address: 3382 Route 132Le Bic,Quebec,CDN, G0L Driving Directions: Notes: Water Available: water is available Season / Operationa Dump Station User Fee: $8.80</desc>
</wpt>
<wpt lat="48.37276" lon="-78.71503">
<name>Camping Parc National d&#x27;Aiguebelle Abijevis Secteur Mont-Brun</name>
<desc>Address: 1702 rang HudonMont-Brun,Quebec,CDN, J0Z 2Y0 Driving Directions: Notes: Water Available: water is available Season / Operationa Dump Station User Fee: $8.80</desc>
</wpt>
<wpt lat="48.38111" lon="-71.08295">
<name>Information Center Chicoutimi</name>
<desc>Address: 2555 Boulevard TalbotChicoutimi,Quebec,CDN, G7H 5B1 Driving Directions: behind the information center Notes: Water Available: water is available Season / Operationa Dump Station User Fee: Free</desc>
</wpt>
<wpt lat="48.38806" lon="-89.26367">
<name>Chapples Park,Public RV Dump Station operated by Thunder Bay City</name>
<desc>Address: Thunder Bay,Ontario,CDN, P0X Driving Directions: behind Fort William Stadium; off Victoria Avenue via Legion Track Drive at Chapples park Notes: Water Available: potable and rinse water (non-potable) available Season / Operational: Open June through Septemb Dump Station User Fee: Free</desc>
</wpt>
<wpt lat="48.39564" lon="-123.942988">
<name>French Beach Provincial Park</name>
<desc>Address: Shirley,British Columbia,CDN, V9Z Driving Directions: 20 km (12.4 miles) West of Sooke; coming North from Victoria and passing through Shirley is French Beach Provincial Park,at the entrance way to the park is a (privately operated) sanidump, look for a pull through to the sanidump on the Right side as you are approaching the park entrance Notes: bring loonies and toonies ($1 and $2 coins) as payment machine does not take bills; two dump lanes Water Available: potable and rinse water (non-potable) available Season / Operational: Open April through Octob Dump Station User Fee: $5.00</desc>
</wpt>
<wpt lat="48.42765" lon="-71.05939">
<name>Tourist information office in Chicoutimi</name>
<desc>Address: 295 Racine Street EastChicoutimi,Quebec,CDN, G7H 1S7 Driving Directions: Notes: Water Available: water is available Season / Operationa Dump Station User Fee: Free</desc>
</wpt>
<wpt lat="48.45919" lon="-68.49688">
<name>Municipality</name>
<desc>Address: 475 2e rue estRimouski,Quebec,CDN, G5M 1S7 Driving Directions: near Walmart Notes: Water Available: water is available Season / Operational: Open May through Septemb Dump Station User Fee: Free</desc>
</wpt>
<wpt lat="48.46246" lon="-67.43469">
<name>Municipal Building</name>
<desc>Address: 30 avenue de parcAmqui,Quebec,CDN, G5J 1X5 Driving Directions: near the corner of Hwy. 132 and Hwy. 195 Notes: Water Available: rinse water (non-potable) available Season / Operationa Dump Station User Fee: Free</desc>
</wpt>
<wpt lat="48.47015" lon="-123.50327">
<name>All Fun Recreation Park and Campground</name>
<desc>Address: 2207 Millstream RoadVictoria,British Columbia,CDN, V9B 6H4 Driving Directions: Notes: Water Available: potable and rinse water (non-potable) available Season / Operational: Open year rou Dump Station User Fee: $10.00</desc>
</wpt>
<wpt lat="48.47811" lon="-123.54911">
<name>Goldstream Provincial Park</name>
<desc>Address: Langford,British Columbia,CDN, V9B Driving Directions: 16 km (10 miles) Northwest of Victoria; Hwy. 1 access to campgrounds is via Sooke Lake Road from Hwy. 1 at the Southern boundary of the park Notes: bring loonies and toonies as payment machine does not take bills Water Available: water is available Season / Operational: Open mid March through Octob Dump Station User Fee: $5.00</desc>
</wpt>
<wpt lat="48.48544" lon="-81.21089">
<name>Petro Canada Gas Station</name>
<desc>Address: Timmins,Ontario,CDN, P0N 1H0 Driving Directions: Notes: Water Available: Season / Operationa Dump Station User Fee: Free</desc>
</wpt>
<wpt lat="48.48657" lon="-81.20523">
<name>Rubino&#x27;s Petro Canada</name>
<desc>Address: 4310 Harold AvenueSouth Porcupine,Ontario,CDN, P0N 1H0 Driving Directions: Notes: Water Available: Season / Operational: Open year round; 24 hou Dump Station User Fee: Free</desc>
</wpt>
<wpt lat="48.54797" lon="-58.58154">
<name>Stephenville Dump Station</name>
<desc>Address: 60 Oregon DriveStephenville,Newfoundland and Labrador,CDN, A2N 2X7 Driving Directions: follow the signs on Carolina Avenue to the airport Notes: Water Available: potable and rinse water (non-potable) available Season / Operationa Dump Station User Fee: Free</desc>
</wpt>
<wpt lat="48.58121" lon="-71.63191">
<name>Bureau d&#x27;information touristique d&#x27;Alma</name>
<desc>Address: 1682 Avenue du Pont NorthAlma,Quebec,CDN, G8B 5G3 Driving Directions: Notes: Water Available: water is available Season / Operationa Dump Station User Fee: Free</desc>
</wpt>
<wpt lat="48.58591" lon="-68.19657">
<name>Municipality Mont-Joli</name>
<desc>Address: Mont-Joli,Quebec,CDN, G5H Driving Directions: Route 132,near Mc Donald, watch for blue dump signs Notes: Water Available: Season / Operationa Dump Station User Fee: Free</desc>
</wpt>
<wpt lat="48.59184" lon="-85.27599">
<name>White River Welcome Centre (Winnie the Poo)</name>
<desc>Address: 555 Elgin StreetWhite River,Ontario,CDN, POM 3G0 Driving Directions: turn off Hwy. 17 at the Winnie the Pooh into the White River Tourism lot Notes: sani-dump at the back of building; right beside the welcome centre (in front of old orange cp rail car); free overnight allowed Water Available: potable and rinse water (non-potable) available Season / Operationa Dump Station User Fee: $4.00</desc>
</wpt>
<wpt lat="48.61469" lon="-93.41616">
<name>Pither&#x27;s Point Park Campground</name>
<desc>Address: 900 Wright AvenueFort Frances,Ontario,CDN, P9A 3J9 Driving Directions: Pither&#x27;s Point Park is located on the shores of Rainy Lake in East Fort Frances on Highway 11 Notes: Water Available: potable and rinse water (non-potable) available Season / Operationa Dump Station User Fee: Free</desc>
</wpt>
<wpt lat="48.65143" lon="-53.10411">
<name>Ultamar First Stop</name>
<desc>Address: Bonavista,Newfoundland and Labrador,CDN, A0C Driving Directions: South on Route 230 from intersection of Route 230 and Route 235,Confederation Drive Notes: Water Available: potable and rinse water (non-potable) available Season / Operationa Dump Station User Fee: $5.00</desc>
</wpt>
<wpt lat="48.65488" lon="-72.46077">
<name>IGA Desbiens</name>
<desc>Address: 1199 Boulevard StreetSaint-Felicien,Quebec,CDN, G8K 3J1 Driving Directions: Notes: grocery store Water Available: water is available Season / Operationa Dump Station User Fee: Free</desc>
</wpt>
<wpt lat="48.65985" lon="-123.41683">
<name>Triangle RV Centre Ltd.</name>
<desc>Address: 10299 McDonald Park RoadSidney,British Columbia,CDN, V8L 5X7 Driving Directions: Notes: our sani-station is conveniently located in the breezeway between our two buildings Water Available: potable and rinse water (non-potable) available Season / Operational: Open year round; Open during business hours on Dump Station User Fee: $7.00</desc>
</wpt>
<wpt lat="48.66089" lon="-71.82098">
<name>Dump Station</name>
<desc>Address: Saint-Henri-de-Taillon,Quebec,CDN, G0E 2X0 Driving Directions: behind church Notes: Water Available: no water available Season / Operationa Dump Station User Fee: Free</desc>
</wpt>
<wpt lat="48.66946" lon="-54.05128">
<name>Public RV Dump Station</name>
<desc>Address: Glovertown,Newfoundland and Labrador,CDN, A0E 2L0 Driving Directions: East of Hwy. 1 on Station Road Notes: Water Available: rinse water (non-potable) available Season / Operational: Open year rou Dump Station User Fee: Free</desc>
</wpt>
<wpt lat="48.72447" lon="-85.64483">
<name>White Lake Provincial Park</name>
<desc>Address: White Lake,Ontario,CDN, K0K Driving Directions: Hwy. 17; the sign for the park entrance is on the West side of The King&#x27;s Highway 17 and located between the towns of White River on the South and Marathon to the North; follow the park road in until you see a Sani Dump sign on the Right,turn Left into the RV dump site Notes: the road into the park is paved but a little narrow Water Available: potable water available; potable water stand had a notice to boil water before drinking (probably for liability issues as it&#x27;s well water) Season / Operationa Dump Station User Fee: Free</desc>
</wpt>
<wpt lat="48.81855" lon="-124.06178">
<name>Lake Cowichan Municipal Sani Dump Station</name>
<desc>Address: Lake Cowichan,British Columbia,CDN, V0R 2G0 Driving Directions: Ice Arena on South Shore Road on the way to Honeymoon Bay Notes: at rear,by the ball field Water Available: potable and rinse water (non-potable) available Season / Operational: Open May through Octob Dump Station User Fee: Donation requested; $5.00 minimum</desc>
</wpt>
<wpt lat="48.85248" lon="-67.53428">
<name>Les Galeries du Vieux Port</name>
<desc>Address: 750 du Phare Avenue WestMatane,Quebec,CDN, G4W 3W8 Driving Directions: travelling West on Highway 132 take first entrance to the Galeries du Vieux Port mall,sani-dump is on the Left just inside the mall parking lot Notes: Water Available: water is available Season / Operationa Dump Station User Fee: Free</desc>
</wpt>
<wpt lat="48.8819" lon="-72.20001">
<name>Public Dump Station</name>
<desc>Address: Dolbeau-Mistassini,Quebec,CDN, G8L Driving Directions: Notes: Water Available: water is available Season / Operationa Dump Station User Fee: Free</desc>
</wpt>
<wpt lat="48.94508" lon="-88.25527">
<name>Red Rock Marina</name>
<desc>Address: Red Rock,Ontario,CDN, P0T Driving Directions: Baker Road Notes: dump station is by the marina gas pump,beside the gas tank Water Available: water is available; water by the gas pump kios Season / Operationa Dump Station User Fee: *</desc>
</wpt>
<wpt lat="48.94554" lon="-57.91815">
<name>Canadian Tire</name>
<desc>Address: 4 Murphy Square Lewyn ParkwayCorner Brook,Newfoundland and Labrador,CDN, C0A Driving Directions: Notes: the dump point is on the Left side of the Canadian Tire building near the Walmart carpark Water Available: no water available Season / Operationa Dump Station User Fee: Free</desc>
</wpt>
<wpt lat="48.94611" lon="-125.54947">
<name>Island West Fishing Resort</name>
<desc>Address: 1990 Bay StreetUcluelet,British Columbia,CDN, V0R 3A0 Driving Directions: Notes: easy access Water Available: potable and rinse water (non-potable) available Season / Operational: Open year rou Dump Station User Fee: $5.00</desc>
</wpt>
<wpt lat="48.95384" lon="-55.63344">
<name>Irving / Ibex Fuels</name>
<desc>Address: 46 Hardy AvenueGrand Falls-Windsor,Newfoundland and Labrador,CDN, A2A 2J3 Driving Directions: Hardy Avenue between Crawley Avenue and Brown Avenue; Right side of Irving Gas station Notes: Water Available: potable and rinse water (non-potable) available Season / Operational: Open May through Octob Dump Station User Fee: Donation requested; $5.00 to the Cancer Society</desc>
</wpt>
<wpt lat="48.99881" lon="-123.82083">
<name>Wash Me on Ludlow</name>
<desc>Address: 930 Ludlow RoadLadysmith,British Columbia,CDN, V9G 1K4 Driving Directions: turn off Trans Canada Highway on Ludlow at lights,continue Right on Ludlow and sanidump is on Right, next to bottle depot Notes: Water Available: water is available; user fee Season / Operational: Open year rou Dump Station User Fee: $5.00 or Free with wash</desc>
</wpt>
<wpt lat="49.00491" lon="-97.2074">
<name>Emerson Centennial Park</name>
<desc>Address: 104 Church StreetEmerson,Manitoba,CDN, R0A 0L0 Driving Directions: Notes: Water Available: Season / Operational: Open mid May through mid Octob Dump Station User Fee: *</desc>
</wpt>
<wpt lat="49.02498" lon="-113.68574">
<name>Waterton Lakes National Park - Belly River Campground</name>
<desc>Address: Waterton,Alberta,CDN Driving Directions: Hwy. 5 go 21 km (13 miles) South on Hwy. 6 Notes: Water Available: water is available Season / Operational: Open mid May through mid Septemb Dump Station User Fee: $8.80</desc>
</wpt>
<wpt lat="49.02671" lon="-118.46041">
<name>Grand Forks City Park</name>
<desc>Address: Grand Forks,British Columbia,CDN, V0H 1H0 Driving Directions: Hwy. 3; 19 Street and 72 Avenue Notes: Water Available: potable and rinse water (non-potable) available Season / Operational: Open May through mid Octob Dump Station User Fee: Free</desc>
</wpt>
<wpt lat="49.03239" lon="-119.47115">
<name>Mohawk Station</name>
<desc>Address: 9101 Main StreetOsoyoos,British Columbia,CDN, V0H 1V4 Driving Directions: Hwy. 3 Notes: tight fit for large rigs; behind gas station Water Available: Season / Operationa Dump Station User Fee: $5.00 or $2.00 with fuel fill up</desc>
</wpt>
<wpt lat="49.03307" lon="-122.00234">
<name>Cultus Lake Provincial Park</name>
<desc>Address: Chilliwack,British Columbia,CDN, V2R Driving Directions: 11 km (6.8 miles) Southwest of Chilliwack Notes: a sani-station / dump is located on the roadway leading to the Maple Bay boat launch and is open only during the campsite operating season; bring loonies and toonies as payment machine does not take bills Water Available: potable and rinse water (non-potable) available Season / Operational: Open mid May through Septemb Dump Station User Fee: $5.00</desc>
</wpt>
<wpt lat="49.03837" lon="-119.49828">
<name>Osoyoos 115 Street Sani Dump</name>
<desc>Address: Osoyoos,British Columbia,CDN, V0H Driving Directions: 115th Street Notes: Water Available: water is available; water is off during freezing temperatures Season / Operational: Open year rou Dump Station User Fee: Free</desc>
</wpt>
<wpt lat="49.03888" lon="-118.21062">
<name>RV Park 7 Motel</name>
<desc>Address: Christina Lake,British Columbia,CDN, V0H Driving Directions: Hwy. 3 &#x26;amp;Westlake Drive Notes: Water Available: water is available Season / Operationa Dump Station User Fee: $8.00</desc>
</wpt>
<wpt lat="49.04643" lon="-113.91195">
<name>Public RV Dump Station</name>
<desc>Address: Waterton,Alberta,CDN, T0K 2M0 Driving Directions: Hwy. 5; Waterton Avenue Notes: RVs and buses Water Available: rinse water (non-potable) available Season / Operational: Open May through Septemb Dump Station User Fee: Free</desc>
</wpt>
<wpt lat="49.04835" lon="-113.90989">
<name>Townsite Campground</name>
<desc>Address: Waterton,Alberta,CDN, T0K 2M0 Driving Directions: Hwy. 5; Wind Flowers Avenue Notes: Water Available: potable and rinse water (non-potable) available Season / Operational: Open May through mid Septemb Dump Station User Fee: Free</desc>
</wpt>
<wpt lat="49.05039" lon="-123.911">
<name>Rondalyn RV Resort</name>
<desc>Address: 1350 Timberlands RoadLadysmith,British Columbia,CDN, V9G 1L5 Driving Directions: 18 km South of Nanaimo Ferry Notes: sani-dump facilities to drop in RVer&#x27;s Water Available: potable and rinse water (non-potable) available Season / Operational: Open year round; 9:00AM - 10:00 Dump Station User Fee: $15.00</desc>
</wpt>
<wpt lat="49.05342" lon="-122.38026">
<name>Fraserway RV</name>
<desc>Address: 30440 South Fraser WayAbbotsford,British Columbia,CDN, V2T 1T8 Driving Directions: from Trans Canada Hwy. (Hwy. 1) take Exit 83,Mt. Lehman Road South toward the Abbotsford Airport; travel South for 2 blocks, located on the Southeast corner of the traffic circle on Mt. Lehman Road and South Fraser Way Notes: follow the sign from Fraserway RV&#x27;s main entrance; there is plenty of parking available for large rigs between the main dealership and service buildings; conveniently located just two blocks off Hwy. #1,plus you can stock up on RV Parts and Accessories and browse through the RVs for sale Water Available: potable and rinse water (non-potable) available; potable water available 100 feet ahead Season / Operational: Open year round; Monday to Thursday 8:00AM - 7:00PM,Friday and Saturday 8:00AM - 5:30PM, Sunday 11:00AM - 5:00 Dump Station User Fee: Free for Fraserway customers or $10.00 for non-customers</desc>
</wpt>
<wpt lat="49.055" lon="-122.1794">
<name>Rest Area - Cole Road,Eastbound</name>
<desc>Address: Abbotsford,British Columbia,CDN, V3G Driving Directions: Trans Canada Hwy. (Hwy. 1) Exit 99 Eastbound; about 7 miles East of Abbotsford on Trans Canada Hwy. (Hwy. 1) at Cole Road and South Parallel Road Notes: RV sani dump; great rest area; lots of parking; restroom facilities; park and play ground next door Water Available: potable and rinse water (non-potable) available Season / Operationa Dump Station User Fee: Free</desc>
</wpt>
<wpt lat="49.05826" lon="-81.03588">
<name>PetroCanada</name>
<desc>Address: Cochrane,Ontario,CDN, P0L 1C0 Driving Directions: Notes: behind the truck stop,far in the back Water Available: water is available Season / Operationa Dump Station User Fee: Free</desc>
</wpt>
<wpt lat="49.06223" lon="-120.76927">
<name>E C Manning Provincial Park - Visitor Information Center</name>
<desc>Address: Manning Park,British Columbia,CDN, V0X 1R0 Driving Directions: Hwy. 3; 1 km (6/10 mile) East of Manning Park Lodge; RV dump stations at entrance to the Visitor Information Center Notes: 2 RV dump stations; bring loonies and toonies as payment machine does not take bills Water Available: potable and rinse water (non-potable) available Season / Operational: Open May through September; opening and closing dates are subject to change due to weath Dump Station User Fee: $5.00</desc>
</wpt>
<wpt lat="49.06327" lon="-120.76754">
<name>E C Manning Provincial Park - Visitor Information Center</name>
<desc>Address: Manning Park,British Columbia,CDN, V0X 1R0 Driving Directions: Hwy. 3; 1 km (6/10 mile) East of Manning Park Lodge; RV dump station at the Visitor Information Center Notes: two locations very near to each other Water Available: potable and rinse water (non-potable) available Season / Operational: Open May through September; opening and closing dates are subject to change due to weath Dump Station User Fee: $5.00</desc>
</wpt>
<wpt lat="49.07924" lon="-122.43257">
<name>Rest Area - Bradner Rest Area,Westbound</name>
<desc>Address: Abbotsford,British Columbia,CDN, V4X Driving Directions: Trans Canada Hwy. (Hwy. 1) Westbound at approximate mile 77 Notes: easy access Water Available: potable and rinse water (non-potable) available Season / Operationa Dump Station User Fee: Free</desc>
</wpt>
<wpt lat="49.07944" lon="-122.43248">
<name>Rest Area - Bradner,Westbound</name>
<desc>Address: Langley,British Columbia,CDN, V4X Driving Directions: approximately Exit 77 on Trans Canada Hwy. (Hwy. 1); Westbound only; just East of 264th Street exit Notes: easy pull-off on return to Vancouver or Island; RV dump only Water Available: rinse water (non-potable) available Season / Operational: Open year round; 24 hou Dump Station User Fee: Free</desc>
</wpt>
<wpt lat="49.09106" lon="-121.45472">
<name>Chilliwack Lake Provincial Park</name>
<desc>Address: Chilliwack,British Columbia,CDN, V0X Driving Directions: 64 km (40 miles) Southeast of Chilliwack,40 km (25 miles) in from Vedder Crossing, take Exit 104 from Hwy. 1 and follow the signs for Cultus Lake until Cultus Lake Road, instead of turning here, follow Vedder Road across the bridge and turn Right onto Chilliwack Lake Road, follow this road for 40 km to the lake Notes: bring loonies and toonies as payment machine does not take bills Water Available: potable and rinse water (non-potable) available Season / Operational: Open May through Octob Dump Station User Fee: $5.00</desc>
</wpt>
<wpt lat="49.09188" lon="-117.64041">
<name>City of Trail RV Park</name>
<desc>Address: Trail,British Columbia,CDN, V1R Driving Directions: located on Highway 3B at the East entrance to the City beside Waneta Plaza Mall (Tim Hortons),near Canadian Tire and Wal-Mart Notes: Water Available: water is available Season / Operational: Open May through Septemb Dump Station User Fee: Free</desc>
</wpt>
<wpt lat="49.09278" lon="-116.50818">
<name>Municipal Dump Station</name>
<desc>Address: Creston,British Columbia,CDN, V0B Driving Directions: turn South off Canyon Street (Highway 3) onto 16th Avenue; travel 1.5 blocks South,turn Right into parking lot beside Millennium Park; sani dump is at back of parking lot Notes: site is a municipal parking lot that permits RV parking; paving is expected in the future; Free,courtesy of the Town of Creston; no overnight parking Water Available: potable and rinse water (non-potable) available Season / Operational: Open May through Octob Dump Station User Fee: Free</desc>
</wpt>
<wpt lat="49.09318" lon="-118.67822">
<name>City Park - Public RV Dump Station</name>
<desc>Address: Greenwood,British Columbia,CDN, V0H Driving Directions: West side of Hwy. 3; North Copper Avenue; near the city park by burnt down restaurant location,stay on Hwy. 3 and look for city park, next to it is a large gravel lot with sani dump and rinse water Notes: Water Available: rinse water (non-potable) available Season / Operational: Open May through Octob Dump Station User Fee: $5.00</desc>
</wpt>
<wpt lat="49.09589" lon="-122.00687">
<name>Vedder River Campground</name>
<desc>Address: 5215 Giesbrecht RoadChilliwack,British Columbia,CDN, V2R 4R1 Driving Directions: Notes: sani-dump facilities to drop in RVer&#x27;s Water Available: water is available Season / Operational: Open May through October; 8:00AM - 10:00 Dump Station User Fee: $5.00</desc>
</wpt>
<wpt lat="49.09768" lon="-117.71873">
<name>City of Trail Public RV Dump Station</name>
<desc>Address: 843 Rossland AvenueTrail,British Columbia,CDN, V1R Driving Directions: Hwy. 22 / Hwy. 3B / Rossland Avenue; in the chainup area next to the Fire Hall Notes: city run dump station Water Available: Season / Operational: Open May through Octob Dump Station User Fee: Free</desc>
</wpt>
<wpt lat="49.099515" lon="-105.172017">
<name>Big Beaver Regional Park</name>
<desc>Address: Big Beaver,Saskatchewan,CDN, S0H Driving Directions: Notes: Water Available: Season / Operational: Open May through mid Septemb Dump Station User Fee: *</desc>
</wpt>
<wpt lat="49.1001" lon="-113.9544">
<name>Waterton Lakes National Park - Crandell Mountain Campground</name>
<desc>Address: Waterton,Alberta,CDN, T0K 2M0 Driving Directions: 8 km (5 miles) West on Red Rock Canyon Road off Hwy. 5 Notes: Water Available: rinse water (non-potable) available Season / Operational: Open early May through Septemb Dump Station User Fee: Free</desc>
</wpt>
<wpt lat="49.10767" lon="-105.51933">
<name>Coronach Sportsplex</name>
<desc>Address: Coronach,Saskatchewan,CDN, S0H Driving Directions: South off of Main Street,keep driving into the Sportsplex parking lot Notes: follow signs for dump station/ sport centre once in town; follow Main Street South into the sports centre parking lot,dump station is on the East side of the parking lot by the pool Water Available: rinse water (non-potable) available Season / Operationa Dump Station User Fee: Free</desc>
</wpt>
<wpt lat="49.11228" lon="-118.98185">
<name>Kettle River Recreation Area,Provincial Campground</name>
<desc>Address: Rock Creek,British Columbia,CDN, V0H Driving Directions: 5 km (3.1 miles) North of Rock Creek on Hwy. 33 Notes: for more information about Kettle River Recreation Area,visit www.explorebcparks.ca Water Available: potable and rinse water (non-potable) available Season / Operational: Open May through Septemb Dump Station User Fee: $5.00</desc>
</wpt>
<wpt lat="49.11481" lon="-117.54463">
<name>Service Station</name>
<desc>Address: Fruitvale,British Columbia,CDN, V0G Driving Directions: corner of Hwy. 3B and Kootenay Avenue Notes: Water Available: Season / Operationa Dump Station User Fee: $5.00</desc>
</wpt>
<wpt lat="49.13075" lon="-122.31503">
<name>Public RV Dump Station</name>
<desc>Address: 32885 Mission WayMission,British Columbia,CDN, V2V Driving Directions: Hwy. 11; Abbotsford - Mission Hwy.; on Mission Way,off London Avenue, East of the Junction Mall, right across from V.I.P Soap Products Ltd. Notes: easy turnaround at West end of dead end street; city of Mission welcomes overnighters and has some free parking spots a list of things to do in Mission BC will be posted at the sani-dump for your convenience,welcome to Mission; this location is very busy on Sundays and long weekends Water Available: potable and rinse water (non-potable) available Season / Operational: Open year rou Dump Station User Fee: Free</desc>
</wpt>
<wpt lat="49.13471" lon="-113.84833">
<name>Waterton Lakes National Park - Waterton Springs Campground</name>
<desc>Address: Waterton,Alberta,CDN, T0K 2M0 Driving Directions: 3 km (1.9 miles) North of Waterton Park Gate on Hwy. 6 Notes: Water Available: water is available Season / Operational: Open May through Octob Dump Station User Fee: $8.80</desc>
</wpt>
<wpt lat="49.13782" lon="-113.78419">
<name>Waterton Lakes National Park - Crooked Creek Campground</name>
<desc>Address: Waterton,Alberta,CDN, T0K 2M0 Driving Directions: 5.6 km (3.8 miles) East of Waterton Park Gate on Hwy. 5 Notes: Water Available: water is available Season / Operational: Open May through Septemb Dump Station User Fee: $8.80</desc>
</wpt>
<wpt lat="49.14187" lon="-112.07966">
<name>Tourist Information Center</name>
<desc>Address: Milk River,Alberta,CDN, T0K Driving Directions: RV dump station is directly in front of the tourist information beside highway 501 entering Milk River from south Notes: Water Available: rinse water (non-potable) available Season / Operational: Open April through Septemb Dump Station User Fee: Free</desc>
</wpt>
<wpt lat="49.14328" lon="-122.00244">
<name>Heritage Park</name>
<desc>Address: Chilliwack,British Columbia,CDN, V2V 4J5 Driving Directions: Exit 116 Lickman Road from Trans Canada Hwy. (Hwy. 1); 1 block South to light; Left / East on Lukakuk Way,on the Right across from Heritage Park Notes: easy access; two sani dumps,near the fence South side; located across from Tourist Info Center Water Available: rinse water (non-potable) available Season / Operational: Open March through mid Novemb Dump Station User Fee: $5.00; credit card only</desc>
</wpt>
<wpt lat="49.14488" lon="-121.99426">
<name>O&#x27;Connor RV Chilliwack</name>
<desc>Address: 44430 Yale RoadChilliwack,British Columbia,CDN, V2P 6J1 Driving Directions: located next to the Trans Canada Hwy. (Hwy. 1); it is easily accessed after passing on the freeway,by traveling to the next exit Notes: RV dump offered as an RV convenience; the sani dump is very accessible from Yale Road and the drive around can accommodate motorhomes,fifth wheels and trailers; the parts store offers the opportunity to stock up or browse the new vehicle inventory Water Available: potable and rinse water (non-potable) available Season / Operational: Open year round; 24 hou Dump Station User Fee: Free</desc>
</wpt>
<wpt lat="49.14492" lon="-125.89215">
<name>Co-op Gas Station</name>
<desc>Address: 797 Campbell StreetTofino,British Columbia,CDN, V0R Driving Directions: Hwy. 4 (Pacific Rim Hwy.); on the Left side at the entrance to Tofino; just pass the Esso Station Notes: the dump is located behind the building and is accessible from either side Water Available: Season / Operationa Dump Station User Fee: $5.00</desc>
</wpt>
<wpt lat="49.14561" lon="-107.51457">
<name>Grasslands National Park</name>
<desc>Address: 101 Centre StreetVal Marie,Saskatchewan,CDN, S0N 2T0 Driving Directions: RV dump station is directly beside the main road in the park Notes: no rinse or drinking water at the dump (water available at the nearby campground) Water Available: no water available Season / Operational: Open year rou Dump Station User Fee: Free</desc>
</wpt>
<wpt lat="49.14671" lon="-102.97429">
<name>Canadian Tire</name>
<desc>Address: 200 King StreetEstevan,Saskatchewan,CDN, S4A 2T5 Driving Directions: South end of Estevan turn East off of Hwy. 39 (4th Street) onto Kensington Avenue,travel North to King Street, turn East on King Street, dump is located at the rear (Northwest corner of Canadian Tire lot) Notes: Water Available: rinse water (non-potable) available Season / Operationa Dump Station User Fee: Free</desc>
</wpt>
<wpt lat="49.17161" lon="-122.57659">
<name>Fort Langley RV Resort &#x26;amp; Campground</name>
<desc>Address: 9451 Glover RoadFort Langley,British Columbia,CDN, V2W Driving Directions: Notes: sani-dump facilities to drop in RVer&#x27;s Water Available: potable and rinse water (non-potable) available Season / Operational: Open year round; 8:00AM - 9:00 Dump Station User Fee: $10.00</desc>
</wpt>
<wpt lat="49.17978" lon="-97.93891">
<name>Winkler Tourist Park</name>
<desc>Address: 185 Main StreetWinkler,Manitoba,CDN, R6W 2R3 Driving Directions: near Winkler water tower Notes: Water Available: water is available; Spring through Fall Season / Operational: Open year rou Dump Station User Fee: Free</desc>
</wpt>
<wpt lat="49.18647" lon="-121.74641">
<name>Rainbow Ranch RV Park</name>
<desc>Address: 53610 Bridal Falls RoadRosedale,British Columbia,CDN, V0X 1X1 Driving Directions: Trans Canada Hwy. (Hwy. 1); Eastbound Exit 135; Westbound Exit 138 Notes: the Bridal Falls area is midway between Chilliwack and Hope at the junction of Hwy. 1 and Hwy. 9; this area can be called Bridal Falls,Rosedale or Popkum Water Available: water is available Season / Operational: Open year rou Dump Station User Fee: $25.00</desc>
</wpt>
<wpt lat="49.18735" lon="-117.61107">
<name>Champion Lakes Provincial Park</name>
<desc>Address: Fruitvale,British Columbia,CDN, V0G 1L0 Driving Directions: 6 km (3.7 miles) Northeast of Fruitvale off Hwy. 3B or just 8 km (5 miles) West of the junction of Hwy. 3 and 3B; from the turn off,it&#x27;s a 12 km (7.5 miles), 20 minute drive to the park entrance Notes: bring loonies and toonies as payment machine does not take bills; honour system,payment is by placing coins or bill in the supplied envelope and depositing it in the steel box Water Available: potable and rinse water (non-potable) available Season / Operational: Open June through mid Septemb Dump Station User Fee: $5.00</desc>
</wpt>
<wpt lat="49.18824" lon="-121.74272">
<name>Camperland RV Resort</name>
<desc>Address: 53730 Bridal Falls RoadRosedale,British Columbia,CDN, V0X 1X1 Driving Directions: Trans Canada Hwy. (Hwy. 1); Eastbound Exit 135; Westbound Exit 138 Notes: the Bridal Falls area is midway between Chilliwack and Hope at the junction of Hwy. 1 and Hwy. 9; this area can be called Bridal Falls,Rosedale or Popkum Water Available: potable and rinse water (non-potable) available Season / Operational: Open April through Octob Dump Station User Fee: $5.00 for RVs,$15.00 for commercial buses</desc>
</wpt>
<wpt lat="49.19287" lon="-117.28118">
<name>Salmo Pump</name>
<desc>Address: 519 Railway AvenueSalmo,British Columbia,CDN, V0G 1Z0 Driving Directions: Hwy. 6; near junction of Hwy. 3 &#x26;amp;Hwy. 6; 6 Street and Railway Avenue Notes: Esso Station Water Available: potable and rinse water (non-potable) available Season / Operationa Dump Station User Fee: $8.00</desc>
</wpt>
<wpt lat="49.20345" lon="-122.89124">
<name>Brownsville RV Park and Marine Pub</name>
<desc>Address: 11940 Old Yale RoadSurrey,British Columbia,CDN, V3V 3X3 Driving Directions: West of Scott Road on Old Yale (108 Avenue),slightly Southwest of the Patullo Bridge in North Surrey beside the Fraser River Notes: Water Available: rinse water (non-potable) available Season / Operationa Dump Station User Fee: $12.00</desc>
</wpt>
<wpt lat="49.20426" lon="-119.81971">
<name>Keremeos Municipal Sani Dump Station</name>
<desc>Address: Keremeos,British Columbia,CDN, V0X Driving Directions: 1 block South,2 blocks East of the Main intersection in town (IGA Store) Notes: Water Available: water is available Season / Operationa Dump Station User Fee: Donation requested</desc>
</wpt>